stop_id,stop_code,stop_name,stop_desc,stop_lat,stop_lon,zone_id,stop_url,location_type,parent_station
1,1,Avenida Valdemarín - Blanca De Castilla,,40.4701,-3.78288,,http://www.emtmadrid.es/aplicaciones/Estimaciones.aspx?idStop=1&Estado=1&panel=6,,
2,2,Avenida Valdemarín - La Salle,,40.46862,-3.78596,,http://www.emtmadrid.es/aplicaciones/Estimaciones.aspx?idStop=2&Estado=1&panel=6,,
3,3,Blanca De Castilla - Camino De La Zarzuela,,40.46491,-3.78385,,http://www.emtmadrid.es/aplicaciones/Estimaciones.aspx?idStop=3&Estado=1&panel=6,,
4,4,Pléyades - Ana Teresa,,40.46139,-3.7841,,http://www.emtmadrid.es/aplicaciones/Estimaciones.aspx?idStop=4&Estado=1&panel=6,,
5,5,Pléyades - Osa Mayor,,40.45939,-3.78429,,http://www.emtmadrid.es/aplicaciones/Estimaciones.aspx?idStop=5&Estado=1&panel=6,,
6,6,Blanca De Castilla - Camino De La Zarzuela,,40.46494,-3.7836,,http://www.emtmadrid.es/aplicaciones/Estimaciones.aspx?idStop=6&Estado=1&panel=6,,
7,7,Avenida Valdemarín - La Salle,,40.46841,-3.78571,,http://www.emtmadrid.es/aplicaciones/Estimaciones.aspx?idStop=7&Estado=1&panel=6,,
8,8,Avenida Valdemarín - Blanca De Castilla,,40.46987,-3.78209,,http://www.emtmadrid.es/aplicaciones/Estimaciones.aspx?idStop=8&Estado=1&panel=6,,
11,11,Buganvilla,,40.47161,-3.67583,,http://www.emtmadrid.es/aplicaciones/Estimaciones.aspx?idStop=11&Estado=1&panel=6,,
12,12,Nuestra Señora De Begoña,,40.46984,-3.80972,,http://www.emtmadrid.es/aplicaciones/Estimaciones.aspx?idStop=12&Estado=1&panel=6,,
13,13,Guecho - Gobelas,,40.47101,-3.81782,,http://www.emtmadrid.es/aplicaciones/Estimaciones.aspx?idStop=13&Estado=1&panel=6,,
14,14,Guecho - Gobelas,,40.47105,-3.81757,,http://www.emtmadrid.es/aplicaciones/Estimaciones.aspx?idStop=14&Estado=1&panel=6,,
16,16,Avenida De La Victoria - Centro Comercial,,40.46689,-3.81318,,http://www.emtmadrid.es/aplicaciones/Estimaciones.aspx?idStop=16&Estado=1&panel=6,,
18,18,Avenida De La Victoria - Centro Comercial,,40.46715,-3.8136,,http://www.emtmadrid.es/aplicaciones/Estimaciones.aspx?idStop=18&Estado=1&panel=6,,
19,19,Acceso A6 - Avenida De La Victoria,,40.46909,-3.81895,,http://www.emtmadrid.es/aplicaciones/Estimaciones.aspx?idStop=19&Estado=1&panel=6,,
20,20,Guecho - Gobelas,,40.47045,-3.81714,,http://www.emtmadrid.es/aplicaciones/Estimaciones.aspx?idStop=20&Estado=1&panel=6,,
21,21,Motrico - Lequeitio,,40.46929,-3.81317,,http://www.emtmadrid.es/aplicaciones/Estimaciones.aspx?idStop=21&Estado=1&panel=6,,
22,22,Amorebieta,,40.46895,-3.81033,,http://www.emtmadrid.es/aplicaciones/Estimaciones.aspx?idStop=22&Estado=1&panel=6,,
23,23,Filosofía B - Estadística,,40.44814,-3.73586,,http://www.emtmadrid.es/aplicaciones/Estimaciones.aspx?idStop=23&Estado=1&panel=6,,
24,24,Mar De Cristal,,40.46946,-3.63769,,http://www.emtmadrid.es/aplicaciones/Estimaciones.aspx?idStop=24&Estado=1&panel=6,,
28,28,Juzgados Plaza Castilla,,40.46501,-3.68973,,http://www.emtmadrid.es/aplicaciones/Estimaciones.aspx?idStop=28&Estado=1&panel=6,,
29,29,Juzgados Plaza Castilla,,40.46508,-3.6892,,http://www.emtmadrid.es/aplicaciones/Estimaciones.aspx?idStop=29&Estado=1&panel=6,,
30,30,Plaza Castilla,,40.46619,-3.68813,,http://www.emtmadrid.es/aplicaciones/Estimaciones.aspx?idStop=30&Estado=1&panel=6,,
31,31,Plaza Castilla,,40.46642,-3.68833,,http://www.emtmadrid.es/aplicaciones/Estimaciones.aspx?idStop=31&Estado=1&panel=6,,
32,32,Castellana - Rosario Pino,,40.46183,-3.68999,,http://www.emtmadrid.es/aplicaciones/Estimaciones.aspx?idStop=32&Estado=1&panel=6,,
33,33,Castellana - Rosario Pino,,40.46181,-3.68953,,http://www.emtmadrid.es/aplicaciones/Estimaciones.aspx?idStop=33&Estado=1&panel=6,,
34,34,Cuzco,,40.45828,-3.69032,,http://www.emtmadrid.es/aplicaciones/Estimaciones.aspx?idStop=34&Estado=1&panel=6,,
35,35,Cuzco,,40.45985,-3.68972,,http://www.emtmadrid.es/aplicaciones/Estimaciones.aspx?idStop=35&Estado=1&panel=6,,
36,36,Castellana - General Yague,,40.45657,-3.69049,,http://www.emtmadrid.es/aplicaciones/Estimaciones.aspx?idStop=36&Estado=1&panel=6,,
37,37,Castellana - General Yague,,40.45572,-3.69011,,http://www.emtmadrid.es/aplicaciones/Estimaciones.aspx?idStop=37&Estado=1&panel=6,,
38,38,Castellana - Rafael Salgado,,40.45455,-3.6907,,http://www.emtmadrid.es/aplicaciones/Estimaciones.aspx?idStop=38&Estado=1&panel=6,,
39,39,Castellana - Rafael Salgado,,40.45454,-3.69023,,http://www.emtmadrid.es/aplicaciones/Estimaciones.aspx?idStop=39&Estado=1&panel=6,,
40,40,San Romualdo - Julián Camarillo,,40.43756,-3.62094,,http://www.emtmadrid.es/aplicaciones/Estimaciones.aspx?idStop=40&Estado=1&panel=6,,
41,41,Lima - Santiago Bernabéu,,40.45146,-3.69106,,http://www.emtmadrid.es/aplicaciones/Estimaciones.aspx?idStop=41&Estado=1&panel=6,,
42,42,Lima - Santiago Bernabéu,,40.45148,-3.69052,,http://www.emtmadrid.es/aplicaciones/Estimaciones.aspx?idStop=42&Estado=1&panel=6,,
44,44,Santiago Bernabéu,,40.45308,-3.69037,,http://www.emtmadrid.es/aplicaciones/Estimaciones.aspx?idStop=44&Estado=1&panel=6,,
45,45,Plaza Lima,,40.45159,-3.6904,,http://www.emtmadrid.es/aplicaciones/Estimaciones.aspx?idStop=45&Estado=1&panel=6,,
46,46,Azca,,40.44938,-3.6912,,http://www.emtmadrid.es/aplicaciones/Estimaciones.aspx?idStop=46&Estado=1&panel=6,,
47,47,Azca,,40.44934,-3.69074,,http://www.emtmadrid.es/aplicaciones/Estimaciones.aspx?idStop=47&Estado=1&panel=6,,
48,48,Nuevos Ministerios - Centro Comercial,,40.44656,-3.6915,,http://www.emtmadrid.es/aplicaciones/Estimaciones.aspx?idStop=48&Estado=1&panel=6,,
49,49,Nuevos Ministerios - Cercanías,,40.44536,-3.6917,,http://www.emtmadrid.es/aplicaciones/Estimaciones.aspx?idStop=49&Estado=1&panel=6,,
50,50,Nuevos Ministerios - Centro Comercial,,40.44682,-3.69101,,http://www.emtmadrid.es/aplicaciones/Estimaciones.aspx?idStop=50&Estado=1&panel=6,,
51,51,Nuevos Ministerios - Castellana,,40.44405,-3.69182,,http://www.emtmadrid.es/aplicaciones/Estimaciones.aspx?idStop=51&Estado=1&panel=6,,
52,52,Nuevos Ministerios - Castellana,,40.44373,-3.69115,,http://www.emtmadrid.es/aplicaciones/Estimaciones.aspx?idStop=52&Estado=1&panel=6,,
53,53,Museo Ciencias Naturales,,40.44098,-3.69219,,http://www.emtmadrid.es/aplicaciones/Estimaciones.aspx?idStop=53&Estado=1&panel=6,,
54,54,Museo Ciencias Naturales,,40.44112,-3.69137,,http://www.emtmadrid.es/aplicaciones/Estimaciones.aspx?idStop=54&Estado=1&panel=6,,
56,56,Gregorio Marañón,,40.43835,-3.6904,,http://www.emtmadrid.es/aplicaciones/Estimaciones.aspx?idStop=56&Estado=1&panel=6,,
57,57,Emilio Castelar,,40.43497,-3.68926,,http://www.emtmadrid.es/aplicaciones/Estimaciones.aspx?idStop=57&Estado=1&panel=6,,
58,58,Emilio Castelar,,40.43575,-3.68869,,http://www.emtmadrid.es/aplicaciones/Estimaciones.aspx?idStop=58&Estado=1&panel=6,,
59,59,Castellana - Rubén Darío,,40.43297,-3.68881,,http://www.emtmadrid.es/aplicaciones/Estimaciones.aspx?idStop=59&Estado=1&panel=6,,
60,60,Castellana - Rubén Dario,,40.4332,-3.68808,,http://www.emtmadrid.es/aplicaciones/Estimaciones.aspx?idStop=60&Estado=1&panel=6,,
61,61,Castellana - Ministerio Interior,,40.42913,-3.6898,,http://www.emtmadrid.es/aplicaciones/Estimaciones.aspx?idStop=61&Estado=1&panel=6,,
62,62,Castellana - Ministerio Interior,,40.42921,-3.68907,,http://www.emtmadrid.es/aplicaciones/Estimaciones.aspx?idStop=62&Estado=1&panel=6,,
63,63,Colón,,40.42586,-3.69063,,http://www.emtmadrid.es/aplicaciones/Estimaciones.aspx?idStop=63&Estado=1&panel=6,,
65,65,Biblioteca Nacional,,40.42384,-3.69052,,http://www.emtmadrid.es/aplicaciones/Estimaciones.aspx?idStop=65&Estado=1&panel=6,,
66,66,Colón,,40.42608,-3.68987,,http://www.emtmadrid.es/aplicaciones/Estimaciones.aspx?idStop=66&Estado=1&panel=6,,
68,68,Recoletos,,40.42285,-3.69152,,http://www.emtmadrid.es/aplicaciones/Estimaciones.aspx?idStop=68&Estado=1&panel=6,,
69,69,Cibeles,,40.41975,-3.69353,,http://www.emtmadrid.es/aplicaciones/Estimaciones.aspx?idStop=69&Estado=1&panel=6,,
70,70,Cibeles,,40.41911,-3.69337,,http://www.emtmadrid.es/aplicaciones/Estimaciones.aspx?idStop=70&Estado=1&panel=6,,
71,71,Cibeles,,40.41876,-3.69263,,http://www.emtmadrid.es/aplicaciones/Estimaciones.aspx?idStop=71&Estado=1&panel=6,,
72,72,Cibeles,,40.42031,-3.69214,,http://www.emtmadrid.es/aplicaciones/Estimaciones.aspx?idStop=72&Estado=1&panel=6,,
73,73,Cibeles,,40.42019,-3.69281,,http://www.emtmadrid.es/aplicaciones/Estimaciones.aspx?idStop=73&Estado=1&panel=6,,
74,74,Cibeles,,40.41899,-3.69333,,http://www.emtmadrid.es/aplicaciones/Estimaciones.aspx?idStop=74&Estado=1&panel=6,,
76,76,Banco De España,,40.41778,-3.69424,,http://www.emtmadrid.es/aplicaciones/Estimaciones.aspx?idStop=76&Estado=1&panel=6,,
77,77,Neptuno,,40.41508,-3.69466,,http://www.emtmadrid.es/aplicaciones/Estimaciones.aspx?idStop=77&Estado=1&panel=6,,
78,78,Neptuno,,40.4156,-3.69327,,http://www.emtmadrid.es/aplicaciones/Estimaciones.aspx?idStop=78&Estado=1&panel=6,,
79,79,Museo Del Prado,,40.41232,-3.69343,,http://www.emtmadrid.es/aplicaciones/Estimaciones.aspx?idStop=79&Estado=1&panel=6,,
81,81,Prado - Atocha,,40.40988,-3.69263,,http://www.emtmadrid.es/aplicaciones/Estimaciones.aspx?idStop=81&Estado=1&panel=6,,
82,82,Prado - Atocha,,40.41002,-3.69218,,http://www.emtmadrid.es/aplicaciones/Estimaciones.aspx?idStop=82&Estado=1&panel=6,,
83,83,Reina Sofía,,40.40773,-3.69359,,http://www.emtmadrid.es/aplicaciones/Estimaciones.aspx?idStop=83&Estado=1&panel=6,,
84,84,Teatro Circo Price,,40.40625,-3.69877,,http://www.emtmadrid.es/aplicaciones/Estimaciones.aspx?idStop=84&Estado=1&panel=6,,
85,85,Teatro Circo Price,,40.40594,-3.69888,,http://www.emtmadrid.es/aplicaciones/Estimaciones.aspx?idStop=85&Estado=1&panel=6,,
86,86,Embajadores,,40.40539,-3.70242,,http://www.emtmadrid.es/aplicaciones/Estimaciones.aspx?idStop=86&Estado=1&panel=6,,
87,87,José Antonio Armona,,40.40443,-3.69674,,http://www.emtmadrid.es/aplicaciones/Estimaciones.aspx?idStop=87&Estado=1&panel=6,,
88,88,Calle De Las Delicias,,40.40415,-3.69393,,http://www.emtmadrid.es/aplicaciones/Estimaciones.aspx?idStop=88&Estado=1&panel=6,,
89,89,Delicias - Atocha,,40.40661,-3.69316,,http://www.emtmadrid.es/aplicaciones/Estimaciones.aspx?idStop=89&Estado=1&panel=6,,
90,90,Círculo De Bellas Artes,,40.41862,-3.69608,,http://www.emtmadrid.es/aplicaciones/Estimaciones.aspx?idStop=90&Estado=1&panel=6,,
92,92,Méndez Álvaro - Estación Sur,,40.39374,-3.67788,,http://www.emtmadrid.es/aplicaciones/Estimaciones.aspx?idStop=92&Estado=1&panel=6,,
93,93,La Vaguada,,40.47912,-3.70659,,http://www.emtmadrid.es/aplicaciones/Estimaciones.aspx?idStop=93&Estado=1&panel=6,,
96,96,Sagrados Corazones,,40.45205,-3.68669,,http://www.emtmadrid.es/aplicaciones/Estimaciones.aspx?idStop=96&Estado=1&panel=6,,
97,97,Padre Damián - Rafael Salgado,,40.45476,-3.68724,,http://www.emtmadrid.es/aplicaciones/Estimaciones.aspx?idStop=97&Estado=1&panel=6,,
98,98,Padre Damián - Rafael Salgado,,40.45477,-3.68698,,http://www.emtmadrid.es/aplicaciones/Estimaciones.aspx?idStop=98&Estado=1&panel=6,,
99,99,Padre Damián - Lázaro Galdiano,,40.45757,-3.68583,,http://www.emtmadrid.es/aplicaciones/Estimaciones.aspx?idStop=99&Estado=1&panel=6,,
100,100,Padre Damián - Lázaro Galdiano,,40.45742,-3.68557,,http://www.emtmadrid.es/aplicaciones/Estimaciones.aspx?idStop=100&Estado=1&panel=6,,
101,101,Alberto Alcocer - Padre Damián,,40.4595,-3.68564,,http://www.emtmadrid.es/aplicaciones/Estimaciones.aspx?idStop=101&Estado=1&panel=6,,
102,102,Alberto Alcocer - Padre Damián,,40.45913,-3.68539,,http://www.emtmadrid.es/aplicaciones/Estimaciones.aspx?idStop=102&Estado=1&panel=6,,
103,103,Padre Damián - Pedro Muguruza,,40.46186,-3.68539,,http://www.emtmadrid.es/aplicaciones/Estimaciones.aspx?idStop=103&Estado=1&panel=6,,
104,104,Padre Damián - Pedro Muguruza,,40.46154,-3.68516,,http://www.emtmadrid.es/aplicaciones/Estimaciones.aspx?idStop=104&Estado=1&panel=6,,
105,105,Madre Molas,,40.46267,-3.68456,,http://www.emtmadrid.es/aplicaciones/Estimaciones.aspx?idStop=105&Estado=1&panel=6,,
106,106,Madre Molas,,40.46232,-3.6845,,http://www.emtmadrid.es/aplicaciones/Estimaciones.aspx?idStop=106&Estado=1&panel=6,,
107,107,Fray Bernardino Sahagún,,40.46122,-3.68226,,http://www.emtmadrid.es/aplicaciones/Estimaciones.aspx?idStop=107&Estado=1&panel=6,,
108,108,Fray Bernardino Sahagún,,40.46098,-3.68224,,http://www.emtmadrid.es/aplicaciones/Estimaciones.aspx?idStop=108&Estado=1&panel=6,,
109,109,Alfonso XIII - Paseo De La Habana,,40.46042,-3.68046,,http://www.emtmadrid.es/aplicaciones/Estimaciones.aspx?idStop=109&Estado=1&panel=6,,
110,110,Alfonso XIII - Paseo De La Habana,,40.46024,-3.68041,,http://www.emtmadrid.es/aplicaciones/Estimaciones.aspx?idStop=110&Estado=1&panel=6,,
111,111,Plaza Del Perú,,40.46081,-3.67673,,http://www.emtmadrid.es/aplicaciones/Estimaciones.aspx?idStop=111&Estado=1&panel=6,,
112,112,Plaza Del Perú,,40.46087,-3.67636,,http://www.emtmadrid.es/aplicaciones/Estimaciones.aspx?idStop=112&Estado=1&panel=6,,
113,113,Plaza Del Perú,,40.46017,-3.67693,,http://www.emtmadrid.es/aplicaciones/Estimaciones.aspx?idStop=113&Estado=1&panel=6,,
114,114,Pío XII - Centro Comercial,,40.46255,-3.67631,,http://www.emtmadrid.es/aplicaciones/Estimaciones.aspx?idStop=114&Estado=1&panel=6,,
115,115,Pío XII - Centro Comercial,,40.4625,-3.67603,,http://www.emtmadrid.es/aplicaciones/Estimaciones.aspx?idStop=115&Estado=1&panel=6,,
116,116,Pío XII - Comandante Franco,,40.46516,-3.67575,,http://www.emtmadrid.es/aplicaciones/Estimaciones.aspx?idStop=116&Estado=1&panel=6,,
117,117,Pío XII - Comandante Franco,,40.46552,-3.67538,,http://www.emtmadrid.es/aplicaciones/Estimaciones.aspx?idStop=117&Estado=1&panel=6,,
118,118,Nunciatura,,40.46862,-3.67375,,http://www.emtmadrid.es/aplicaciones/Estimaciones.aspx?idStop=118&Estado=1&panel=6,,
119,119,Nunciatura,,40.46829,-3.67362,,http://www.emtmadrid.es/aplicaciones/Estimaciones.aspx?idStop=119&Estado=1&panel=6,,
120,120,Pío XII - La Paloma,,40.47081,-3.6734,,http://www.emtmadrid.es/aplicaciones/Estimaciones.aspx?idStop=120&Estado=1&panel=6,,
123,123,Bambú,,40.47408,-3.67749,,http://www.emtmadrid.es/aplicaciones/Estimaciones.aspx?idStop=123&Estado=1&panel=6,,
124,124,Bambú - Yuca,,40.47683,-3.67643,,http://www.emtmadrid.es/aplicaciones/Estimaciones.aspx?idStop=124&Estado=1&panel=6,,
125,125,Avenida De Burgos,,40.47945,-3.67578,,http://www.emtmadrid.es/aplicaciones/Estimaciones.aspx?idStop=125&Estado=1&panel=6,,
126,126,Avenida De Burgos,,40.47919,-3.6755,,http://www.emtmadrid.es/aplicaciones/Estimaciones.aspx?idStop=126&Estado=1&panel=6,,
127,127,San Luis - Avenida De Burgos,,40.48095,-3.67526,,http://www.emtmadrid.es/aplicaciones/Estimaciones.aspx?idStop=127&Estado=1&panel=6,,
128,128,San Luis - Avenida De Burgos,,40.4806,-3.67495,,http://www.emtmadrid.es/aplicaciones/Estimaciones.aspx?idStop=128&Estado=1&panel=6,,
129,129,Condado De Treviño,,40.47954,-3.67213,,http://www.emtmadrid.es/aplicaciones/Estimaciones.aspx?idStop=129&Estado=1&panel=6,,
130,130,Condado De Treviño,,40.47975,-3.6726,,http://www.emtmadrid.es/aplicaciones/Estimaciones.aspx?idStop=130&Estado=1&panel=6,,
131,131,Serrano Galvache,,40.47783,-3.67084,,http://www.emtmadrid.es/aplicaciones/Estimaciones.aspx?idStop=131&Estado=1&panel=6,,
132,132,Serrano Galvache,,40.47743,-3.67091,,http://www.emtmadrid.es/aplicaciones/Estimaciones.aspx?idStop=132&Estado=1&panel=6,,
133,133,San Luis - Arturo Soria,,40.47686,-3.66895,,http://www.emtmadrid.es/aplicaciones/Estimaciones.aspx?idStop=133&Estado=1&panel=6,,
134,134,San Luis - Arturo Soria,,40.47679,-3.66852,,http://www.emtmadrid.es/aplicaciones/Estimaciones.aspx?idStop=134&Estado=1&panel=6,,
135,135,Arturo Soria - Cultura,,40.47919,-3.66851,,http://www.emtmadrid.es/aplicaciones/Estimaciones.aspx?idStop=135&Estado=1&panel=6,,
136,136,Arturo Soria - Cultura,,40.47852,-3.66843,,http://www.emtmadrid.es/aplicaciones/Estimaciones.aspx?idStop=136&Estado=1&panel=6,,
137,137,Pinar De Chamartín,,40.48046,-3.66725,,http://www.emtmadrid.es/aplicaciones/Estimaciones.aspx?idStop=137&Estado=1&panel=6,,
138,138,Pinar De Chamartín,,40.48011,-3.66727,,http://www.emtmadrid.es/aplicaciones/Estimaciones.aspx?idStop=138&Estado=1&panel=6,,
139,139,Arturo Soria - M11,,40.48258,-3.66494,,http://www.emtmadrid.es/aplicaciones/Estimaciones.aspx?idStop=139&Estado=1&panel=6,,
140,140,Arturo Soria - M11,,40.48238,-3.66456,,http://www.emtmadrid.es/aplicaciones/Estimaciones.aspx?idStop=140&Estado=1&panel=6,,
145,145,Bambú,,40.47511,-3.67591,,http://www.emtmadrid.es/aplicaciones/Estimaciones.aspx?idStop=145&Estado=1&panel=6,,
146,146,Pío XII - Avenida De Burgos,,40.4731,-3.6757,,http://www.emtmadrid.es/aplicaciones/Estimaciones.aspx?idStop=146&Estado=1&panel=6,,
147,147,Manuel Becerra,,40.42857,-3.66917,,http://www.emtmadrid.es/aplicaciones/Estimaciones.aspx?idStop=147&Estado=1&panel=6,,
148,148,Doctor Esquerdo - Goya,,40.42521,-3.66891,,http://www.emtmadrid.es/aplicaciones/Estimaciones.aspx?idStop=148&Estado=1&panel=6,,
149,149,Doctor Esquerdo - Goya,,40.42485,-3.66851,,http://www.emtmadrid.es/aplicaciones/Estimaciones.aspx?idStop=149&Estado=1&panel=6,,
150,150,Casa De La Moneda,,40.42198,-3.66919,,http://www.emtmadrid.es/aplicaciones/Estimaciones.aspx?idStop=150&Estado=1&panel=6,,
151,151,Casa De La Moneda,,40.42272,-3.66871,,http://www.emtmadrid.es/aplicaciones/Estimaciones.aspx?idStop=151&Estado=1&panel=6,,
152,152,Doctor Esquerdo - O Donnell,,40.42139,-3.66951,,http://www.emtmadrid.es/aplicaciones/Estimaciones.aspx?idStop=152&Estado=1&panel=6,,
153,153,Metro O Donnell,,40.42114,-3.66951,,http://www.emtmadrid.es/aplicaciones/Estimaciones.aspx?idStop=153&Estado=1&panel=6,,
154,154,O Donnell - Maiquez,,40.42156,-3.67311,,http://www.emtmadrid.es/aplicaciones/Estimaciones.aspx?idStop=154&Estado=1&panel=6,,
155,155,O Donnell - Maiquez,,40.42129,-3.67313,,http://www.emtmadrid.es/aplicaciones/Estimaciones.aspx?idStop=155&Estado=1&panel=6,,
156,156,O Donnell - Narváez,,40.42172,-3.67639,,http://www.emtmadrid.es/aplicaciones/Estimaciones.aspx?idStop=156&Estado=1&panel=6,,
157,157,O Donnell - Narváez,,40.42147,-3.67646,,http://www.emtmadrid.es/aplicaciones/Estimaciones.aspx?idStop=157&Estado=1&panel=6,,
158,158,O Donnell - Retiro,,40.42172,-3.68041,,http://www.emtmadrid.es/aplicaciones/Estimaciones.aspx?idStop=158&Estado=1&panel=6,,
159,159,O Donnell - Retiro,,40.42144,-3.68074,,http://www.emtmadrid.es/aplicaciones/Estimaciones.aspx?idStop=159&Estado=1&panel=6,,
161,161,Puerta De Alcalá,,40.42064,-3.68919,,http://www.emtmadrid.es/aplicaciones/Estimaciones.aspx?idStop=161&Estado=1&panel=6,,
162,162,Puerta De Alcalá,,40.41965,-3.68826,,http://www.emtmadrid.es/aplicaciones/Estimaciones.aspx?idStop=162&Estado=1&panel=6,,
163,163,Puerta De Alcalá,,40.42053,-3.68851,,http://www.emtmadrid.es/aplicaciones/Estimaciones.aspx?idStop=163&Estado=1&panel=6,,
164,164,Círculo De Bellas Artes,,40.41891,-3.69715,,http://www.emtmadrid.es/aplicaciones/Estimaciones.aspx?idStop=164&Estado=1&panel=6,,
167,167,Gran Vía - Callao,,40.42002,-3.7032,,http://www.emtmadrid.es/aplicaciones/Estimaciones.aspx?idStop=167&Estado=1&panel=6,,
168,168,Santo Domingo,,40.42134,-3.70727,,http://www.emtmadrid.es/aplicaciones/Estimaciones.aspx?idStop=168&Estado=1&panel=6,,
169,169,Santo Domingo,,40.42109,-3.70746,,http://www.emtmadrid.es/aplicaciones/Estimaciones.aspx?idStop=169&Estado=1&panel=6,,
170,170,Gran Vía - Plaza De España,,40.42295,-3.7097,,http://www.emtmadrid.es/aplicaciones/Estimaciones.aspx?idStop=170&Estado=1&panel=6,,
171,171,Gran Vía - Plaza De España,,40.423,-3.71052,,http://www.emtmadrid.es/aplicaciones/Estimaciones.aspx?idStop=171&Estado=1&panel=6,,
172,172,Ventura Rodríguez,,40.42595,-3.71266,,http://www.emtmadrid.es/aplicaciones/Estimaciones.aspx?idStop=172&Estado=1&panel=6,,
173,173,Ventura Rodríguez,,40.42602,-3.71313,,http://www.emtmadrid.es/aplicaciones/Estimaciones.aspx?idStop=173&Estado=1&panel=6,,
174,174,Alcalá - Retiro,,40.42048,-3.68579,,http://www.emtmadrid.es/aplicaciones/Estimaciones.aspx?idStop=174&Estado=1&panel=6,,
175,175,Mártires De Alcalá,,40.42776,-3.71359,,http://www.emtmadrid.es/aplicaciones/Estimaciones.aspx?idStop=175&Estado=1&panel=6,,
176,176,Arguelles,,40.43049,-3.71173,,http://www.emtmadrid.es/aplicaciones/Estimaciones.aspx?idStop=176&Estado=1&panel=6,,
177,177,Blasco De Garay - Centro De Mayores,,40.43396,-3.71147,,http://www.emtmadrid.es/aplicaciones/Estimaciones.aspx?idStop=177&Estado=1&panel=6,,
180,180,Vallehermoso - Islas Filipinas,,40.44047,-3.70803,,http://www.emtmadrid.es/aplicaciones/Estimaciones.aspx?idStop=180&Estado=1&panel=6,,
181,181,Estadio Vallehermoso,,40.44254,-3.70998,,http://www.emtmadrid.es/aplicaciones/Estimaciones.aspx?idStop=181&Estado=1&panel=6,,
182,182,Juan Vigón,,40.44139,-3.71238,,http://www.emtmadrid.es/aplicaciones/Estimaciones.aspx?idStop=182&Estado=1&panel=6,,
183,183,General Ampudia,,40.44238,-3.71503,,http://www.emtmadrid.es/aplicaciones/Estimaciones.aspx?idStop=183&Estado=1&panel=6,,
184,184,Avenida Del Valle,,40.4436,-3.71508,,http://www.emtmadrid.es/aplicaciones/Estimaciones.aspx?idStop=184&Estado=1&panel=6,,
185,185,Metro Guzmán El Bueno,,40.44581,-3.71421,,http://www.emtmadrid.es/aplicaciones/Estimaciones.aspx?idStop=185&Estado=1&panel=6,,
186,186,Reina Victoria,,40.44587,-3.71241,,http://www.emtmadrid.es/aplicaciones/Estimaciones.aspx?idStop=186&Estado=1&panel=6,,
187,187,Guzmán El Bueno - San Francisco De Sales,,40.44292,-3.71265,,http://www.emtmadrid.es/aplicaciones/Estimaciones.aspx?idStop=187&Estado=1&panel=6,,
188,188,Juan Vigón,,40.44159,-3.71282,,http://www.emtmadrid.es/aplicaciones/Estimaciones.aspx?idStop=188&Estado=1&panel=6,,
189,189,Metro Islas Filipinas,,40.43876,-3.71302,,http://www.emtmadrid.es/aplicaciones/Estimaciones.aspx?idStop=189&Estado=1&panel=6,,
190,190,Guzmán El Bueno - Fernández De Los Ríos,,40.43586,-3.71323,,http://www.emtmadrid.es/aplicaciones/Estimaciones.aspx?idStop=190&Estado=1&panel=6,,
191,191,Guzmán El Bueno - Meléndez Valdes,,40.43356,-3.71342,,http://www.emtmadrid.es/aplicaciones/Estimaciones.aspx?idStop=191&Estado=1&panel=6,,
192,192,Arguelles,,40.43101,-3.71362,,http://www.emtmadrid.es/aplicaciones/Estimaciones.aspx?idStop=192&Estado=1&panel=6,,
193,193,Princesa - Rey Francisco,,40.42794,-3.71453,,http://www.emtmadrid.es/aplicaciones/Estimaciones.aspx?idStop=193&Estado=1&panel=6,,
194,194,Menéndez Pelayo - Menorca,,40.41981,-3.67919,,http://www.emtmadrid.es/aplicaciones/Estimaciones.aspx?idStop=194&Estado=1&panel=6,,
195,195,Menéndez Pelayo - Menorca,,40.41963,-3.67937,,http://www.emtmadrid.es/aplicaciones/Estimaciones.aspx?idStop=195&Estado=1&panel=6,,
196,196,Menéndez Pelayo - Sainz De Baranda,,40.41692,-3.67726,,http://www.emtmadrid.es/aplicaciones/Estimaciones.aspx?idStop=196&Estado=1&panel=6,,
197,197,Ibiza - Narváez,,40.41847,-3.67651,,http://www.emtmadrid.es/aplicaciones/Estimaciones.aspx?idStop=197&Estado=1&panel=6,,
199,199,Ibiza - Maiquez,,40.4183,-3.67276,,http://www.emtmadrid.es/aplicaciones/Estimaciones.aspx?idStop=199&Estado=1&panel=6,,
203,203,Mateo Inurria,,40.4669,-3.68513,,http://www.emtmadrid.es/aplicaciones/Estimaciones.aspx?idStop=203&Estado=1&panel=6,,
204,204,Mateo Inurria,,40.46693,-3.68559,,http://www.emtmadrid.es/aplicaciones/Estimaciones.aspx?idStop=204&Estado=1&panel=6,,
205,205,Avenida Del Recuerdo,,40.46743,-3.68154,,http://www.emtmadrid.es/aplicaciones/Estimaciones.aspx?idStop=205&Estado=1&panel=6,,
206,206,Avenida Del Recuerdo,,40.46762,-3.68117,,http://www.emtmadrid.es/aplicaciones/Estimaciones.aspx?idStop=206&Estado=1&panel=6,,
207,207,Duque De Pastrana,,40.46759,-3.67962,,http://www.emtmadrid.es/aplicaciones/Estimaciones.aspx?idStop=207&Estado=1&panel=6,,
208,208,Nunciatura,,40.46739,-3.67525,,http://www.emtmadrid.es/aplicaciones/Estimaciones.aspx?idStop=208&Estado=1&panel=6,,
209,209,Nunciatura,,40.46749,-3.67517,,http://www.emtmadrid.es/aplicaciones/Estimaciones.aspx?idStop=209&Estado=1&panel=6,,
210,210,Caidos División Azul,,40.46651,-3.67273,,http://www.emtmadrid.es/aplicaciones/Estimaciones.aspx?idStop=210&Estado=1&panel=6,,
211,211,Caidos División Azul,,40.46682,-3.67276,,http://www.emtmadrid.es/aplicaciones/Estimaciones.aspx?idStop=211&Estado=1&panel=6,,
212,212,Arturo Soria - Añastro,,40.46652,-3.66614,,http://www.emtmadrid.es/aplicaciones/Estimaciones.aspx?idStop=212&Estado=1&panel=6,,
213,213,Arturo Soria - Añastro,,40.46656,-3.66579,,http://www.emtmadrid.es/aplicaciones/Estimaciones.aspx?idStop=213&Estado=1&panel=6,,
214,214,Arturo Soria - Añastro,,40.46755,-3.66597,,http://www.emtmadrid.es/aplicaciones/Estimaciones.aspx?idStop=214&Estado=1&panel=6,,
215,215,Arturo Soria - Aleixandre,,40.463,-3.66507,,http://www.emtmadrid.es/aplicaciones/Estimaciones.aspx?idStop=215&Estado=1&panel=6,,
216,216,Arturo Soria - Aleixandre,,40.46411,-3.66504,,http://www.emtmadrid.es/aplicaciones/Estimaciones.aspx?idStop=216&Estado=1&panel=6,,
217,217,Arturo Soria - Gran Vía De Hortaleza,,40.46107,-3.66224,,http://www.emtmadrid.es/aplicaciones/Estimaciones.aspx?idStop=217&Estado=1&panel=6,,
218,218,Arturo Soria - López De Hoyos,,40.45952,-3.66068,,http://www.emtmadrid.es/aplicaciones/Estimaciones.aspx?idStop=218&Estado=1&panel=6,,
219,219,Arturo Soria - López De Hoyos,,40.45916,-3.65945,,http://www.emtmadrid.es/aplicaciones/Estimaciones.aspx?idStop=219&Estado=1&panel=6,,
220,220,Metro Arturo Soria,,40.45677,-3.65755,,http://www.emtmadrid.es/aplicaciones/Estimaciones.aspx?idStop=220&Estado=1&panel=6,,
221,221,Metro Arturo Soria,,40.4571,-3.65743,,http://www.emtmadrid.es/aplicaciones/Estimaciones.aspx?idStop=221&Estado=1&panel=6,,
222,222,Jefatura Provincial Tráfico,,40.45449,-3.65547,,http://www.emtmadrid.es/aplicaciones/Estimaciones.aspx?idStop=222&Estado=1&panel=6,,
223,223,Arturo Soria - Bueso Pineda,,40.45473,-3.65536,,http://www.emtmadrid.es/aplicaciones/Estimaciones.aspx?idStop=223&Estado=1&panel=6,,
224,224,Arturo Soria - Conservatorio,,40.45194,-3.65324,,http://www.emtmadrid.es/aplicaciones/Estimaciones.aspx?idStop=224&Estado=1&panel=6,,
225,225,Arturo Soria - Conservatorio,,40.45093,-3.65219,,http://www.emtmadrid.es/aplicaciones/Estimaciones.aspx?idStop=225&Estado=1&panel=6,,
226,226,Nuestra Señora De América,,40.44975,-3.65162,,http://www.emtmadrid.es/aplicaciones/Estimaciones.aspx?idStop=226&Estado=1&panel=6,,
227,227,Nuestra Señora De América,,40.44917,-3.65064,,http://www.emtmadrid.es/aplicaciones/Estimaciones.aspx?idStop=227&Estado=1&panel=6,,
228,228,Arturo Soria - Josefa Valcárcel,,40.44678,-3.64905,,http://www.emtmadrid.es/aplicaciones/Estimaciones.aspx?idStop=228&Estado=1&panel=6,,
229,229,Arturo Soria - Josefa Valcárcel,,40.4471,-3.64897,,http://www.emtmadrid.es/aplicaciones/Estimaciones.aspx?idStop=229&Estado=1&panel=6,,
230,230,Arturo Soria - Juan Pérez De Zúñiga,,40.4448,-3.64572,,http://www.emtmadrid.es/aplicaciones/Estimaciones.aspx?idStop=230&Estado=1&panel=6,,
231,231,Arturo Soria - Juan Pérez De Zúñiga,,40.44513,-3.64564,,http://www.emtmadrid.es/aplicaciones/Estimaciones.aspx?idStop=231&Estado=1&panel=6,,
232,232,Arturo Soria - Marqués De Pico Velasco,,40.44403,-3.64395,,http://www.emtmadrid.es/aplicaciones/Estimaciones.aspx?idStop=232&Estado=1&panel=6,,
233,233,Arturo Soria - Marqués De Pico Velasco,,40.44426,-3.64387,,http://www.emtmadrid.es/aplicaciones/Estimaciones.aspx?idStop=233&Estado=1&panel=6,,
234,234,Arturo Soria - José Del Hierro,,40.44205,-3.64128,,http://www.emtmadrid.es/aplicaciones/Estimaciones.aspx?idStop=234&Estado=1&panel=6,,
235,235,Arturo Soria - José Del Hierro,,40.44124,-3.6403,,http://www.emtmadrid.es/aplicaciones/Estimaciones.aspx?idStop=235&Estado=1&panel=6,,
236,236,Ciudad Lineal,,40.43858,-3.63881,,http://www.emtmadrid.es/aplicaciones/Estimaciones.aspx?idStop=236&Estado=1&panel=6,,
237,237,Ciudad Lineal,,40.43876,-3.63837,,http://www.emtmadrid.es/aplicaciones/Estimaciones.aspx?idStop=237&Estado=1&panel=6,,
239,239,Ciudad Lineal,,40.43743,-3.63741,,http://www.emtmadrid.es/aplicaciones/Estimaciones.aspx?idStop=239&Estado=1&panel=6,,
240,240,Vital Aza - Albasanz,,40.43491,-3.63609,,http://www.emtmadrid.es/aplicaciones/Estimaciones.aspx?idStop=240&Estado=1&panel=6,,
241,241,Vital Aza - Albasanz,,40.43508,-3.63575,,http://www.emtmadrid.es/aplicaciones/Estimaciones.aspx?idStop=241&Estado=1&panel=6,,
242,242,Ascao - Julián Camarillo,,40.43257,-3.63447,,http://www.emtmadrid.es/aplicaciones/Estimaciones.aspx?idStop=242&Estado=1&panel=6,,
243,243,Ascao - Julián Camarillo,,40.43252,-3.63379,,http://www.emtmadrid.es/aplicaciones/Estimaciones.aspx?idStop=243&Estado=1&panel=6,,
244,244,Metro García Noblejas,,40.42944,-3.63213,,http://www.emtmadrid.es/aplicaciones/Estimaciones.aspx?idStop=244&Estado=1&panel=6,,
245,245,Metro García Noblejas,,40.42948,-3.63161,,http://www.emtmadrid.es/aplicaciones/Estimaciones.aspx?idStop=245&Estado=1&panel=6,,
246,246,Castillo De Arévalo,,40.42773,-3.63088,,http://www.emtmadrid.es/aplicaciones/Estimaciones.aspx?idStop=246&Estado=1&panel=6,,
247,247,Castillo De Arévalo,,40.42807,-3.63073,,http://www.emtmadrid.es/aplicaciones/Estimaciones.aspx?idStop=247&Estado=1&panel=6,,
248,248,García Noblejas - Gandhi,,40.42643,-3.62953,,http://www.emtmadrid.es/aplicaciones/Estimaciones.aspx?idStop=248&Estado=1&panel=6,,
250,250,García Noblejas Centro Salud,,40.42372,-3.62804,,http://www.emtmadrid.es/aplicaciones/Estimaciones.aspx?idStop=250&Estado=1&panel=6,,
251,251,García Noblejas - Arcentales,,40.42532,-3.62869,,http://www.emtmadrid.es/aplicaciones/Estimaciones.aspx?idStop=251&Estado=1&panel=6,,
252,252,García Noblejas - Centro De Salud,,40.42394,-3.62755,,http://www.emtmadrid.es/aplicaciones/Estimaciones.aspx?idStop=252&Estado=1&panel=6,,
253,253,García Noblejas - Villaescusa,,40.42064,-3.62576,,http://www.emtmadrid.es/aplicaciones/Estimaciones.aspx?idStop=253&Estado=1&panel=6,,
255,255,Felipe II,,40.42467,-3.67445,,http://www.emtmadrid.es/aplicaciones/Estimaciones.aspx?idStop=255&Estado=1&panel=6,,
256,256,Nicolás Salmerón - Paredes De Nava,,40.41859,-3.62808,,http://www.emtmadrid.es/aplicaciones/Estimaciones.aspx?idStop=256&Estado=1&panel=6,,
257,257,Nicolás Salmerón - Paredes De Nava,,40.41839,-3.62821,,http://www.emtmadrid.es/aplicaciones/Estimaciones.aspx?idStop=257&Estado=1&panel=6,,
258,258,Nicolás Salmerón - Matamorosa,,40.41961,-3.63001,,http://www.emtmadrid.es/aplicaciones/Estimaciones.aspx?idStop=258&Estado=1&panel=6,,
259,259,Nicolás Salmerón - Matamorosa,,40.41942,-3.6301,,http://www.emtmadrid.es/aplicaciones/Estimaciones.aspx?idStop=259&Estado=1&panel=6,,
260,260,Nicolás Salmerón,,40.42073,-3.63217,,http://www.emtmadrid.es/aplicaciones/Estimaciones.aspx?idStop=260&Estado=1&panel=6,,
261,261,Nicolás Salmerón,,40.42059,-3.63223,,http://www.emtmadrid.es/aplicaciones/Estimaciones.aspx?idStop=261&Estado=1&panel=6,,
262,262,Cementerio Civil,,40.42193,-3.63432,,http://www.emtmadrid.es/aplicaciones/Estimaciones.aspx?idStop=262&Estado=1&panel=6,,
263,263,Cementerio Civil,,40.42169,-3.63424,,http://www.emtmadrid.es/aplicaciones/Estimaciones.aspx?idStop=263&Estado=1&panel=6,,
264,264,Largo Caballero - Nicolás Salmerón,,40.42305,-3.63526,,http://www.emtmadrid.es/aplicaciones/Estimaciones.aspx?idStop=264&Estado=1&panel=6,,
265,265,Largo Caballero - Villaescusa,,40.42319,-3.63273,,http://www.emtmadrid.es/aplicaciones/Estimaciones.aspx?idStop=265&Estado=1&panel=6,,
266,266,Duque de Pastrana,,40.46806,-3.67786,,http://www.emtmadrid.es/aplicaciones/Estimaciones.aspx?idStop=266&Estado=1&panel=6,,
268,268,López De Hoyos - Cartagena,,40.44315,-3.67568,,http://www.emtmadrid.es/aplicaciones/Estimaciones.aspx?idStop=268&Estado=1&panel=6,,
269,269,Quintanavides,,40.49701,-3.66733,,http://www.emtmadrid.es/aplicaciones/Estimaciones.aspx?idStop=269&Estado=1&panel=6,,
270,270,Quintanavides,,40.49674,-3.66736,,http://www.emtmadrid.es/aplicaciones/Estimaciones.aspx?idStop=270&Estado=1&panel=6,,
271,271,Foresta,,40.49758,-3.66965,,http://www.emtmadrid.es/aplicaciones/Estimaciones.aspx?idStop=271&Estado=1&panel=6,,
272,272,Quintanadueñas,,40.49879,-3.67002,,http://www.emtmadrid.es/aplicaciones/Estimaciones.aspx?idStop=272&Estado=1&panel=6,,
273,273,Prosperidad,,40.44376,-3.6749,,http://www.emtmadrid.es/aplicaciones/Estimaciones.aspx?idStop=273&Estado=1&panel=6,,
276,276,Avenida De Badajoz,,40.44221,-3.65435,,http://www.emtmadrid.es/aplicaciones/Estimaciones.aspx?idStop=276&Estado=1&panel=6,,
278,278,Chueca,,40.42357,-3.6987,,http://www.emtmadrid.es/aplicaciones/Estimaciones.aspx?idStop=278&Estado=1&panel=6,,
280,280,Sagasta,,40.42885,-3.69938,,http://www.emtmadrid.es/aplicaciones/Estimaciones.aspx?idStop=280&Estado=1&panel=6,,
281,281,Sagasta,,40.42872,-3.69961,,http://www.emtmadrid.es/aplicaciones/Estimaciones.aspx?idStop=281&Estado=1&panel=6,,
282,282,Francisco De Rojas,,40.43022,-3.70006,,http://www.emtmadrid.es/aplicaciones/Estimaciones.aspx?idStop=282&Estado=1&panel=6,,
284,284,Plaza Chamberí,,40.43208,-3.69815,,http://www.emtmadrid.es/aplicaciones/Estimaciones.aspx?idStop=284&Estado=1&panel=6,,
285,285,Luchana - Plaza Chamberí,,40.432,-3.69868,,http://www.emtmadrid.es/aplicaciones/Estimaciones.aspx?idStop=285&Estado=1&panel=6,,
286,286,Eduardo Dato,,40.43274,-3.69433,,http://www.emtmadrid.es/aplicaciones/Estimaciones.aspx?idStop=286&Estado=1&panel=6,,
287,287,Eduardo Dato,,40.43301,-3.69448,,http://www.emtmadrid.es/aplicaciones/Estimaciones.aspx?idStop=287&Estado=1&panel=6,,
288,288,Rubén Darío,,40.43285,-3.69216,,http://www.emtmadrid.es/aplicaciones/Estimaciones.aspx?idStop=288&Estado=1&panel=6,,
289,289,Arguelles,,40.43047,-3.71524,,http://www.emtmadrid.es/aplicaciones/Estimaciones.aspx?idStop=289&Estado=1&panel=6,,
292,292,Rafaela Ybarra - Centro Comecial,,40.36685,-3.71243,,http://www.emtmadrid.es/aplicaciones/Estimaciones.aspx?idStop=292&Estado=1&panel=6,,
293,293,Alberto Alcocer - Padre Damián,,40.45863,-3.68517,,http://www.emtmadrid.es/aplicaciones/Estimaciones.aspx?idStop=293&Estado=1&panel=6,,
294,294,Alberto Alcocer - Padre Damián,,40.45901,-3.68512,,http://www.emtmadrid.es/aplicaciones/Estimaciones.aspx?idStop=294&Estado=1&panel=6,,
295,295,Alberto Alcocer - Paseo De La Habana,,40.4585,-3.68234,,http://www.emtmadrid.es/aplicaciones/Estimaciones.aspx?idStop=295&Estado=1&panel=6,,
296,296,Alberto Alcocer - Paseo De La Habana,,40.4588,-3.68236,,http://www.emtmadrid.es/aplicaciones/Estimaciones.aspx?idStop=296&Estado=1&panel=6,,
297,297,República Dominicana,,40.45858,-3.67827,,http://www.emtmadrid.es/aplicaciones/Estimaciones.aspx?idStop=297&Estado=1&panel=6,,
298,298,República Dominicana,,40.45893,-3.67833,,http://www.emtmadrid.es/aplicaciones/Estimaciones.aspx?idStop=298&Estado=1&panel=6,,
299,299,Chile,,40.45837,-3.67545,,http://www.emtmadrid.es/aplicaciones/Estimaciones.aspx?idStop=299&Estado=1&panel=6,,
300,300,Costa Rica,,40.45832,-3.67228,,http://www.emtmadrid.es/aplicaciones/Estimaciones.aspx?idStop=300&Estado=1&panel=6,,
302,302,José María Soler,,40.45877,-3.66906,,http://www.emtmadrid.es/aplicaciones/Estimaciones.aspx?idStop=302&Estado=1&panel=6,,
303,303,José María Soler,,40.45903,-3.6693,,http://www.emtmadrid.es/aplicaciones/Estimaciones.aspx?idStop=303&Estado=1&panel=6,,
304,304,Aster,,40.45709,-3.6673,,http://www.emtmadrid.es/aplicaciones/Estimaciones.aspx?idStop=304&Estado=1&panel=6,,
305,305,Aster,,40.45755,-3.66696,,http://www.emtmadrid.es/aplicaciones/Estimaciones.aspx?idStop=305&Estado=1&panel=6,,
306,306,Alfonso XIII - Alhelíes,,40.45519,-3.66706,,http://www.emtmadrid.es/aplicaciones/Estimaciones.aspx?idStop=306&Estado=1&panel=6,,
307,307,Alfonso XIII - Alhelíes,,40.45523,-3.66676,,http://www.emtmadrid.es/aplicaciones/Estimaciones.aspx?idStop=307&Estado=1&panel=6,,
308,308,Alfonso XIII - Ramón Y Cajal,,40.45319,-3.66746,,http://www.emtmadrid.es/aplicaciones/Estimaciones.aspx?idStop=308&Estado=1&panel=6,,
309,309,Alfonso XIII - Ramón Y Cajal,,40.45316,-3.6672,,http://www.emtmadrid.es/aplicaciones/Estimaciones.aspx?idStop=309&Estado=1&panel=6,,
310,310,Alfonso XIII - Pradillo,,40.45127,-3.66765,,http://www.emtmadrid.es/aplicaciones/Estimaciones.aspx?idStop=310&Estado=1&panel=6,,
311,311,Alfonso XIII - Pradillo,,40.45098,-3.66733,,http://www.emtmadrid.es/aplicaciones/Estimaciones.aspx?idStop=311&Estado=1&panel=6,,
312,312,Alfonso XIII,,40.44821,-3.6675,,http://www.emtmadrid.es/aplicaciones/Estimaciones.aspx?idStop=312&Estado=1&panel=6,,
313,313,San Nazario,,40.44851,-3.66595,,http://www.emtmadrid.es/aplicaciones/Estimaciones.aspx?idStop=313&Estado=1&panel=6,,
314,314,Chile,,40.45881,-3.67598,,http://www.emtmadrid.es/aplicaciones/Estimaciones.aspx?idStop=314&Estado=1&panel=6,,
315,315,Gaínza,,40.36583,-3.71429,,http://www.emtmadrid.es/aplicaciones/Estimaciones.aspx?idStop=315&Estado=1&panel=6,,
316,316,Rubén Darío,,40.43339,-3.69148,,http://www.emtmadrid.es/aplicaciones/Estimaciones.aspx?idStop=316&Estado=1&panel=6,,
317,317,Plaza Chamberí,,40.43264,-3.69715,,http://www.emtmadrid.es/aplicaciones/Estimaciones.aspx?idStop=317&Estado=1&panel=6,,
320,320,Embajadores - Ronda De Valencia,,40.40546,-3.70164,,http://www.emtmadrid.es/aplicaciones/Estimaciones.aspx?idStop=320&Estado=1&panel=6,,
321,321,Embajadores - Ronda De Valencia,,40.40525,-3.70144,,http://www.emtmadrid.es/aplicaciones/Estimaciones.aspx?idStop=321&Estado=1&panel=6,,
322,322,Embajadores - Acacias,,40.40471,-3.70427,,http://www.emtmadrid.es/aplicaciones/Estimaciones.aspx?idStop=322&Estado=1&panel=6,,
323,323,Embajadores - Acacias,,40.40458,-3.70389,,http://www.emtmadrid.es/aplicaciones/Estimaciones.aspx?idStop=323&Estado=1&panel=6,,
324,324,Acacias,,40.40394,-3.70711,,http://www.emtmadrid.es/aplicaciones/Estimaciones.aspx?idStop=324&Estado=1&panel=6,,
325,325,Acacias,,40.40376,-3.70698,,http://www.emtmadrid.es/aplicaciones/Estimaciones.aspx?idStop=325&Estado=1&panel=6,,
326,326,Olmos,,40.40314,-3.71005,,http://www.emtmadrid.es/aplicaciones/Estimaciones.aspx?idStop=326&Estado=1&panel=6,,
327,327,Pirámides,,40.40134,-3.71331,,http://www.emtmadrid.es/aplicaciones/Estimaciones.aspx?idStop=327&Estado=1&panel=6,,
328,328,Pirámides,,40.40114,-3.71324,,http://www.emtmadrid.es/aplicaciones/Estimaciones.aspx?idStop=328&Estado=1&panel=6,,
329,329,Marqués De Vadillo,,40.39717,-3.71728,,http://www.emtmadrid.es/aplicaciones/Estimaciones.aspx?idStop=329&Estado=1&panel=6,,
330,330,Marqués De Vadillo,,40.3972,-3.71666,,http://www.emtmadrid.es/aplicaciones/Estimaciones.aspx?idStop=330&Estado=1&panel=6,,
331,331,General Ricardos - Iglesia,,40.3959,-3.71905,,http://www.emtmadrid.es/aplicaciones/Estimaciones.aspx?idStop=331&Estado=1&panel=6,,
332,332,Guetaria - Ordicia,,40.36651,-3.71543,,http://www.emtmadrid.es/aplicaciones/Estimaciones.aspx?idStop=332&Estado=1&panel=6,,
334,334,General Ricardos - Camino Viejo Leganés,,40.39371,-3.72308,,http://www.emtmadrid.es/aplicaciones/Estimaciones.aspx?idStop=334&Estado=1&panel=6,,
336,336,Urgel,,40.39247,-3.72538,,http://www.emtmadrid.es/aplicaciones/Estimaciones.aspx?idStop=336&Estado=1&panel=6,,
337,337,Clarisas,,40.39057,-3.72893,,http://www.emtmadrid.es/aplicaciones/Estimaciones.aspx?idStop=337&Estado=1&panel=6,,
338,338,Clarisas,,40.3903,-3.72885,,http://www.emtmadrid.es/aplicaciones/Estimaciones.aspx?idStop=338&Estado=1&panel=6,,
340,340,Oporto,,40.38879,-3.73121,,http://www.emtmadrid.es/aplicaciones/Estimaciones.aspx?idStop=340&Estado=1&panel=6,,
341,341,Plaza Vistalegre,,40.3853,-3.73735,,http://www.emtmadrid.es/aplicaciones/Estimaciones.aspx?idStop=341&Estado=1&panel=6,,
342,342,Plaza Vistalegre,,40.38511,-3.7373,,http://www.emtmadrid.es/aplicaciones/Estimaciones.aspx?idStop=342&Estado=1&panel=6,,
343,343,General Ricardos - Muñoz Grandes,,40.38482,-3.7392,,http://www.emtmadrid.es/aplicaciones/Estimaciones.aspx?idStop=343&Estado=1&panel=6,,
344,344,General Ricardos - Muñoz Grandes,,40.38451,-3.73965,,http://www.emtmadrid.es/aplicaciones/Estimaciones.aspx?idStop=344&Estado=1&panel=6,,
345,345,Plaza De La Palmera,,40.38268,-3.74279,,http://www.emtmadrid.es/aplicaciones/Estimaciones.aspx?idStop=345&Estado=1&panel=6,,
346,346,Plaza De La Palmera,,40.3826,-3.74252,,http://www.emtmadrid.es/aplicaciones/Estimaciones.aspx?idStop=346&Estado=1&panel=6,,
347,347,General Ricardos - Eugenia De Montijo,,40.38094,-3.74507,,http://www.emtmadrid.es/aplicaciones/Estimaciones.aspx?idStop=347&Estado=1&panel=6,,
348,348,General Ricardos - Eugenia De Montijo,,40.38075,-3.74494,,http://www.emtmadrid.es/aplicaciones/Estimaciones.aspx?idStop=348&Estado=1&panel=6,,
349,349,Colonia De La Prensa,,40.37901,-3.74745,,http://www.emtmadrid.es/aplicaciones/Estimaciones.aspx?idStop=349&Estado=1&panel=6,,
350,350,Colonia De La Prensa,,40.38,-3.74616,,http://www.emtmadrid.es/aplicaciones/Estimaciones.aspx?idStop=350&Estado=1&panel=6,,
351,351,Eugenia De Montijo - Fátima,,40.37833,-3.7482,,http://www.emtmadrid.es/aplicaciones/Estimaciones.aspx?idStop=351&Estado=1&panel=6,,
352,352,Eugenia De Montijo - Fátima,,40.37824,-3.74806,,http://www.emtmadrid.es/aplicaciones/Estimaciones.aspx?idStop=352&Estado=1&panel=6,,
353,353,Plaza Del Parterre,,40.37576,-3.75139,,http://www.emtmadrid.es/aplicaciones/Estimaciones.aspx?idStop=353&Estado=1&panel=6,,
354,354,Ronda De Don Bosco,,40.37462,-3.75338,,http://www.emtmadrid.es/aplicaciones/Estimaciones.aspx?idStop=354&Estado=1&panel=6,,
355,355,Polvoranca,,40.37208,-3.75462,,http://www.emtmadrid.es/aplicaciones/Estimaciones.aspx?idStop=355&Estado=1&panel=6,,
356,356,Polvoranca,,40.37189,-3.75455,,http://www.emtmadrid.es/aplicaciones/Estimaciones.aspx?idStop=356&Estado=1&panel=6,,
357,357,Joaquín Turina - Las Cruces,,40.37224,-3.75881,,http://www.emtmadrid.es/aplicaciones/Estimaciones.aspx?idStop=357&Estado=1&panel=6,,
358,358,Joaquín Turina - Las Cruces,,40.37214,-3.75907,,http://www.emtmadrid.es/aplicaciones/Estimaciones.aspx?idStop=358&Estado=1&panel=6,,
359,359,Colonia Aviación,,40.37498,-3.7653,,http://www.emtmadrid.es/aplicaciones/Estimaciones.aspx?idStop=359&Estado=1&panel=6,,
360,360,Colonia Aviación,,40.37432,-3.76549,,http://www.emtmadrid.es/aplicaciones/Estimaciones.aspx?idStop=360&Estado=1&panel=6,,
361,361,Millán Astray,,40.37752,-3.76631,,http://www.emtmadrid.es/aplicaciones/Estimaciones.aspx?idStop=361&Estado=1&panel=6,,
362,362,Millán Astray,,40.37744,-3.76649,,http://www.emtmadrid.es/aplicaciones/Estimaciones.aspx?idStop=362&Estado=1&panel=6,,
363,363,Mercado Las Águilas,,40.37751,-3.76881,,http://www.emtmadrid.es/aplicaciones/Estimaciones.aspx?idStop=363&Estado=1&panel=6,,
364,364,Mercado Las Águilas,,40.37717,-3.76933,,http://www.emtmadrid.es/aplicaciones/Estimaciones.aspx?idStop=364&Estado=1&panel=6,,
365,365,Romero Basart - Rafael Finat,,40.37791,-3.77239,,http://www.emtmadrid.es/aplicaciones/Estimaciones.aspx?idStop=365&Estado=1&panel=6,,
366,366,Romero Basart - Rafael Finat,,40.37789,-3.77267,,http://www.emtmadrid.es/aplicaciones/Estimaciones.aspx?idStop=366&Estado=1&panel=6,,
367,367,Romero Basart - Oliva De Plasencia,,40.37929,-3.77511,,http://www.emtmadrid.es/aplicaciones/Estimaciones.aspx?idStop=367&Estado=1&panel=6,,
368,368,Oliva De Plasencia,,40.37907,-3.77738,,http://www.emtmadrid.es/aplicaciones/Estimaciones.aspx?idStop=368&Estado=1&panel=6,,
369,369,Cuacos De Yuste,,40.37883,-3.78015,,http://www.emtmadrid.es/aplicaciones/Estimaciones.aspx?idStop=369&Estado=1&panel=6,,
370,370,Cuacos De Yuste,,40.3788,-3.78036,,http://www.emtmadrid.es/aplicaciones/Estimaciones.aspx?idStop=370&Estado=1&panel=6,,
371,371,Las Águilas - Cercanías,,40.38097,-3.77987,,http://www.emtmadrid.es/aplicaciones/Estimaciones.aspx?idStop=371&Estado=1&panel=6,,
372,372,Las Águilas - Cercanías,,40.38154,-3.78046,,http://www.emtmadrid.es/aplicaciones/Estimaciones.aspx?idStop=372&Estado=1&panel=6,,
373,373,Las Águilas,,40.38186,-3.77751,,http://www.emtmadrid.es/aplicaciones/Estimaciones.aspx?idStop=373&Estado=1&panel=6,,
374,374,Oliva De Plasencia,,40.37914,-3.77694,,http://www.emtmadrid.es/aplicaciones/Estimaciones.aspx?idStop=374&Estado=1&panel=6,,
375,375,San Ignacio,,40.3789,-3.77455,,http://www.emtmadrid.es/aplicaciones/Estimaciones.aspx?idStop=375&Estado=1&panel=6,,
376,376,Plaza De La Emperatriz,,40.37407,-3.75107,,http://www.emtmadrid.es/aplicaciones/Estimaciones.aspx?idStop=376&Estado=1&panel=6,,
377,377,Emperatr,,40.37433,-3.75122,,http://www.emtmadrid.es/aplicaciones/Estimaciones.aspx?idStop=377&Estado=1&panel=6,,
378,378,Plaza Del Parterre,,40.37508,-3.7508,,http://www.emtmadrid.es/aplicaciones/Estimaciones.aspx?idStop=378&Estado=1&panel=6,,
379,379,Plaza Del Parterre,,40.37528,-3.75105,,http://www.emtmadrid.es/aplicaciones/Estimaciones.aspx?idStop=379&Estado=1&panel=6,,
380,380,Pirámides Cercanías,,40.4024,-3.71111,,http://www.emtmadrid.es/aplicaciones/Estimaciones.aspx?idStop=380&Estado=1&panel=6,,
381,381,Olmos,,40.40298,-3.70982,,http://www.emtmadrid.es/aplicaciones/Estimaciones.aspx?idStop=381&Estado=1&panel=6,,
383,383,Ulises - Arturo Soria,,40.45604,-3.65598,,http://www.emtmadrid.es/aplicaciones/Estimaciones.aspx?idStop=383&Estado=1&panel=6,,
384,384,Ulises - Arturo Soria,,40.45619,-3.65596,,http://www.emtmadrid.es/aplicaciones/Estimaciones.aspx?idStop=384&Estado=1&panel=6,,
385,385,Ulises - Asura,,40.45704,-3.65358,,http://www.emtmadrid.es/aplicaciones/Estimaciones.aspx?idStop=385&Estado=1&panel=6,,
386,386,Ulises - Asura,,40.4572,-3.65369,,http://www.emtmadrid.es/aplicaciones/Estimaciones.aspx?idStop=386&Estado=1&panel=6,,
387,387,Moscatelar - Parma,,40.45711,-3.6499,,http://www.emtmadrid.es/aplicaciones/Estimaciones.aspx?idStop=387&Estado=1&panel=6,,
388,388,Moscatelar - Parma,,40.45725,-3.64926,,http://www.emtmadrid.es/aplicaciones/Estimaciones.aspx?idStop=388&Estado=1&panel=6,,
389,389,Moscatelar - Milán,,40.45708,-3.64734,,http://www.emtmadrid.es/aplicaciones/Estimaciones.aspx?idStop=389&Estado=1&panel=6,,
390,390,Moscatelar - Milán,,40.45732,-3.64681,,http://www.emtmadrid.es/aplicaciones/Estimaciones.aspx?idStop=390&Estado=1&panel=6,,
391,391,Plaza Del Liceo,,40.45785,-3.64379,,http://www.emtmadrid.es/aplicaciones/Estimaciones.aspx?idStop=391&Estado=1&panel=6,,
392,392,Plaza Del Liceo,,40.45794,-3.64398,,http://www.emtmadrid.es/aplicaciones/Estimaciones.aspx?idStop=392&Estado=1&panel=6,,
393,393,Silvano - Esperanza,,40.45962,-3.64231,,http://www.emtmadrid.es/aplicaciones/Estimaciones.aspx?idStop=393&Estado=1&panel=6,,
394,394,Silvano - Esperanza,,40.45961,-3.64264,,http://www.emtmadrid.es/aplicaciones/Estimaciones.aspx?idStop=394&Estado=1&panel=6,,
395,395,Silvano - Alcorisa,,40.46198,-3.63925,,http://www.emtmadrid.es/aplicaciones/Estimaciones.aspx?idStop=395&Estado=1&panel=6,,
396,396,Silvano - Alcorisa,,40.46166,-3.64013,,http://www.emtmadrid.es/aplicaciones/Estimaciones.aspx?idStop=396&Estado=1&panel=6,,
397,397,Silvano - José Rizal,,40.46259,-3.63752,,http://www.emtmadrid.es/aplicaciones/Estimaciones.aspx?idStop=397&Estado=1&panel=6,,
398,398,Silvano - José Rizal,,40.46278,-3.63778,,http://www.emtmadrid.es/aplicaciones/Estimaciones.aspx?idStop=398&Estado=1&panel=6,,
399,399,Federico Mompou - Isabel Colbrand,,40.51077,-3.67918,,http://www.emtmadrid.es/aplicaciones/Estimaciones.aspx?idStop=399&Estado=1&panel=6,,
402,402,Camino De Santiago - Palas De Rey,,40.50894,-3.6691,,http://www.emtmadrid.es/aplicaciones/Estimaciones.aspx?idStop=402&Estado=1&panel=6,,
405,405,Parque Juan Carlos I,,40.46131,-3.61545,,http://www.emtmadrid.es/aplicaciones/Estimaciones.aspx?idStop=405&Estado=1&panel=6,,
406,406,Parque Juan Carlos I,,40.46146,-3.61598,,http://www.emtmadrid.es/aplicaciones/Estimaciones.aspx?idStop=406&Estado=1&panel=6,,
408,408,Avenida De La Paz,,40.45355,-3.6612,,http://www.emtmadrid.es/aplicaciones/Estimaciones.aspx?idStop=408&Estado=1&panel=6,,
409,409,Avenida De La Paz,,40.45369,-3.66161,,http://www.emtmadrid.es/aplicaciones/Estimaciones.aspx?idStop=409&Estado=1&panel=6,,
410,410,Alfonso XIII - Ramón Y Cajal,,40.45234,-3.66826,,http://www.emtmadrid.es/aplicaciones/Estimaciones.aspx?idStop=410&Estado=1&panel=6,,
411,411,Alfonso XIII - Ramón Y Cajal,,40.45262,-3.66854,,http://www.emtmadrid.es/aplicaciones/Estimaciones.aspx?idStop=411&Estado=1&panel=6,,
412,412,Parque De Berlín,,40.45156,-3.67685,,http://www.emtmadrid.es/aplicaciones/Estimaciones.aspx?idStop=412&Estado=1&panel=6,,
413,413,Parque De Berlín,,40.45176,-3.6771,,http://www.emtmadrid.es/aplicaciones/Estimaciones.aspx?idStop=413&Estado=1&panel=6,,
414,414,Plaza De Cataluña,,40.44956,-3.67762,,http://www.emtmadrid.es/aplicaciones/Estimaciones.aspx?idStop=414&Estado=1&panel=6,,
415,415,Plaza De Cataluña,,40.44923,-3.67801,,http://www.emtmadrid.es/aplicaciones/Estimaciones.aspx?idStop=415&Estado=1&panel=6,,
416,416,Santa Gema,,40.44741,-3.68045,,http://www.emtmadrid.es/aplicaciones/Estimaciones.aspx?idStop=416&Estado=1&panel=6,,
417,417,Santa Gema,,40.44749,-3.68087,,http://www.emtmadrid.es/aplicaciones/Estimaciones.aspx?idStop=417&Estado=1&panel=6,,
418,418,Doctor Arce,,40.44616,-3.68214,,http://www.emtmadrid.es/aplicaciones/Estimaciones.aspx?idStop=418&Estado=1&panel=6,,
419,419,República Argentina,,40.4459,-3.68596,,http://www.emtmadrid.es/aplicaciones/Estimaciones.aspx?idStop=419&Estado=1&panel=6,,
420,420,República Argentina,,40.44559,-3.68624,,http://www.emtmadrid.es/aplicaciones/Estimaciones.aspx?idStop=420&Estado=1&panel=6,,
421,421,Nuevos Ministerios - Joaquín Costa,,40.44602,-3.69012,,http://www.emtmadrid.es/aplicaciones/Estimaciones.aspx?idStop=421&Estado=1&panel=6,,
422,422,Nuevos Ministerios - Joaquín Costa,,40.44643,-3.69006,,http://www.emtmadrid.es/aplicaciones/Estimaciones.aspx?idStop=422&Estado=1&panel=6,,
423,423,Velázquez - Villanueva,,40.42216,-3.68421,,http://www.emtmadrid.es/aplicaciones/Estimaciones.aspx?idStop=423&Estado=1&panel=6,,
424,424,Velázquez - Goya,,40.42488,-3.68402,,http://www.emtmadrid.es/aplicaciones/Estimaciones.aspx?idStop=424&Estado=1&panel=6,,
425,425,Velázquez - Ayala,,40.42761,-3.68379,,http://www.emtmadrid.es/aplicaciones/Estimaciones.aspx?idStop=425&Estado=1&panel=6,,
426,426,Velázquez - Ortega Y Gasset,,40.43008,-3.68351,,http://www.emtmadrid.es/aplicaciones/Estimaciones.aspx?idStop=426&Estado=1&panel=6,,
427,427,Velázquez - Juan Bravo,,40.4321,-3.6834,,http://www.emtmadrid.es/aplicaciones/Estimaciones.aspx?idStop=427&Estado=1&panel=6,,
428,428,Velázquez - Diego De León,,40.43468,-3.6832,,http://www.emtmadrid.es/aplicaciones/Estimaciones.aspx?idStop=428&Estado=1&panel=6,,
430,430,Velázquez - López De Hoyos,,40.43978,-3.68271,,http://www.emtmadrid.es/aplicaciones/Estimaciones.aspx?idStop=430&Estado=1&panel=6,,
431,431,Velázquez - Joaquín Costa,,40.44142,-3.68266,,http://www.emtmadrid.es/aplicaciones/Estimaciones.aspx?idStop=431&Estado=1&panel=6,,
432,432,Velázquez - Rodríguez Marín,,40.44315,-3.68251,,http://www.emtmadrid.es/aplicaciones/Estimaciones.aspx?idStop=432&Estado=1&panel=6,,
433,433,Plaza De Cataluña,,40.44933,-3.67947,,http://www.emtmadrid.es/aplicaciones/Estimaciones.aspx?idStop=433&Estado=1&panel=6,,
434,434,Cinca,,40.45022,-3.68183,,http://www.emtmadrid.es/aplicaciones/Estimaciones.aspx?idStop=434&Estado=1&panel=6,,
435,435,Hospital San Rafael,,40.4521,-3.68101,,http://www.emtmadrid.es/aplicaciones/Estimaciones.aspx?idStop=435&Estado=1&panel=6,,
436,436,Hospital San Rafael,,40.4522,-3.68133,,http://www.emtmadrid.es/aplicaciones/Estimaciones.aspx?idStop=436&Estado=1&panel=6,,
437,437,Príncipe De Vergara - Serrano,,40.45462,-3.67783,,http://www.emtmadrid.es/aplicaciones/Estimaciones.aspx?idStop=437&Estado=1&panel=6,,
438,438,Príncipe De Vergara - Serrano,,40.45438,-3.67864,,http://www.emtmadrid.es/aplicaciones/Estimaciones.aspx?idStop=438&Estado=1&panel=6,,
439,439,Colombia,,40.45808,-3.67666,,http://www.emtmadrid.es/aplicaciones/Estimaciones.aspx?idStop=439&Estado=1&panel=6,,
440,440,Colombia,,40.45753,-3.6772,,http://www.emtmadrid.es/aplicaciones/Estimaciones.aspx?idStop=440&Estado=1&panel=6,,
441,441,Segre,,40.44997,-3.68265,,http://www.emtmadrid.es/aplicaciones/Estimaciones.aspx?idStop=441&Estado=1&panel=6,,
442,442,Guadiana,,40.44788,-3.68394,,http://www.emtmadrid.es/aplicaciones/Estimaciones.aspx?idStop=442&Estado=1&panel=6,,
443,443,República Argentina,,40.44447,-3.68591,,http://www.emtmadrid.es/aplicaciones/Estimaciones.aspx?idStop=443&Estado=1&panel=6,,
444,444,Ramiro De Maeztu,,40.44251,-3.68614,,http://www.emtmadrid.es/aplicaciones/Estimaciones.aspx?idStop=444&Estado=1&panel=6,,
445,445,Residencia De Estudiantes,,40.44074,-3.68626,,http://www.emtmadrid.es/aplicaciones/Estimaciones.aspx?idStop=445&Estado=1&panel=6,,
446,446,Serrano - María De Molina,,40.43833,-3.68644,,http://www.emtmadrid.es/aplicaciones/Estimaciones.aspx?idStop=446&Estado=1&panel=6,,
447,447,Serrano - Diego De León,,40.43583,-3.68667,,http://www.emtmadrid.es/aplicaciones/Estimaciones.aspx?idStop=447&Estado=1&panel=6,,
448,448,Serrano - Maldonado,,40.43389,-3.68682,,http://www.emtmadrid.es/aplicaciones/Estimaciones.aspx?idStop=448&Estado=1&panel=6,,
449,449,Serrano - Ortega Y Gasset,,40.42962,-3.68726,,http://www.emtmadrid.es/aplicaciones/Estimaciones.aspx?idStop=449&Estado=1&panel=6,,
451,451,Metro Serrano,,40.4261,-3.68791,,http://www.emtmadrid.es/aplicaciones/Estimaciones.aspx?idStop=451&Estado=1&panel=6,,
452,452,Museo Arqueológico,,40.42305,-3.68844,,http://www.emtmadrid.es/aplicaciones/Estimaciones.aspx?idStop=452&Estado=1&panel=6,,
453,453,Sagrados Corazones,,40.45175,-3.68505,,http://www.emtmadrid.es/aplicaciones/Estimaciones.aspx?idStop=453&Estado=1&panel=6,,
454,454,Sagrados Corazones,,40.45203,-3.68514,,http://www.emtmadrid.es/aplicaciones/Estimaciones.aspx?idStop=454&Estado=1&panel=6,,
455,455,Hospital San Rafael,,40.45155,-3.68089,,http://www.emtmadrid.es/aplicaciones/Estimaciones.aspx?idStop=455&Estado=1&panel=6,,
456,456,Hospital San Rafael,,40.45188,-3.68092,,http://www.emtmadrid.es/aplicaciones/Estimaciones.aspx?idStop=456&Estado=1&panel=6,,
457,457,Ramón Y Cajal - Víctor De La Serna,,40.45153,-3.67409,,http://www.emtmadrid.es/aplicaciones/Estimaciones.aspx?idStop=457&Estado=1&panel=6,,
458,458,Ramón Y Cajal - Víctor De La Serna,,40.45186,-3.67402,,http://www.emtmadrid.es/aplicaciones/Estimaciones.aspx?idStop=458&Estado=1&panel=6,,
459,459,Colonia De Los Carteros,,40.45223,-3.67092,,http://www.emtmadrid.es/aplicaciones/Estimaciones.aspx?idStop=459&Estado=1&panel=6,,
460,460,Colonia De Los Carteros,,40.45245,-3.67098,,http://www.emtmadrid.es/aplicaciones/Estimaciones.aspx?idStop=460&Estado=1&panel=6,,
461,461,Padre Claret - Ramón Y Cajal,,40.45254,-3.66501,,http://www.emtmadrid.es/aplicaciones/Estimaciones.aspx?idStop=461&Estado=1&panel=6,,
462,462,Padre Claret - Ramón Y Cajal,,40.45258,-3.66597,,http://www.emtmadrid.es/aplicaciones/Estimaciones.aspx?idStop=462&Estado=1&panel=6,,
463,463,José Silva - Agastia,,40.45483,-3.65839,,http://www.emtmadrid.es/aplicaciones/Estimaciones.aspx?idStop=463&Estado=1&panel=6,,
464,464,José Silva - Agastia,,40.4549,-3.65858,,http://www.emtmadrid.es/aplicaciones/Estimaciones.aspx?idStop=464&Estado=1&panel=6,,
465,465,Silvano - José Domingo Rus,,40.46261,-3.63292,,http://www.emtmadrid.es/aplicaciones/Estimaciones.aspx?idStop=465&Estado=1&panel=6,,
466,466,Silvano - José Domingo Rus,,40.46281,-3.63292,,http://www.emtmadrid.es/aplicaciones/Estimaciones.aspx?idStop=466&Estado=1&panel=6,,
467,467,Pedroñeras - Silvano,,40.46303,-3.62958,,http://www.emtmadrid.es/aplicaciones/Estimaciones.aspx?idStop=467&Estado=1&panel=6,,
468,468,Canillas,,40.46296,-3.62974,,http://www.emtmadrid.es/aplicaciones/Estimaciones.aspx?idStop=468&Estado=1&panel=6,,
469,469,Pedroñeras - El Provencio,,40.46451,-3.63006,,http://www.emtmadrid.es/aplicaciones/Estimaciones.aspx?idStop=469&Estado=1&panel=6,,
470,470,Pedroñeras - El Provencio,,40.46409,-3.63008,,http://www.emtmadrid.es/aplicaciones/Estimaciones.aspx?idStop=470&Estado=1&panel=6,,
471,471,Mota Del Cuervo,,40.46499,-3.63171,,http://www.emtmadrid.es/aplicaciones/Estimaciones.aspx?idStop=471&Estado=1&panel=6,,
472,472,Mota Del Cuervo,,40.46479,-3.63175,,http://www.emtmadrid.es/aplicaciones/Estimaciones.aspx?idStop=472&Estado=1&panel=6,,
473,473,Motilla Del Palancar,,40.46484,-3.63418,,http://www.emtmadrid.es/aplicaciones/Estimaciones.aspx?idStop=473&Estado=1&panel=6,,
474,474,Motilla Del Palancar,,40.46473,-3.63421,,http://www.emtmadrid.es/aplicaciones/Estimaciones.aspx?idStop=474&Estado=1&panel=6,,
475,475,Emigrantes - Carretera De Canillas,,40.46579,-3.63599,,http://www.emtmadrid.es/aplicaciones/Estimaciones.aspx?idStop=475&Estado=1&panel=6,,
476,476,Emigrantes - Carretera De Canillas,,40.46576,-3.6363,,http://www.emtmadrid.es/aplicaciones/Estimaciones.aspx?idStop=476&Estado=1&panel=6,,
477,477,Emigrantes - Tribaldos,,40.46742,-3.63692,,http://www.emtmadrid.es/aplicaciones/Estimaciones.aspx?idStop=477&Estado=1&panel=6,,
478,478,Emigrantes - Tribaldos,,40.4673,-3.63723,,http://www.emtmadrid.es/aplicaciones/Estimaciones.aspx?idStop=478&Estado=1&panel=6,,
479,479,Ayacucho,,40.47,-3.63921,,http://www.emtmadrid.es/aplicaciones/Estimaciones.aspx?idStop=479&Estado=1&panel=6,,
480,480,Sandro Pertini,,40.47004,-3.64193,,http://www.emtmadrid.es/aplicaciones/Estimaciones.aspx?idStop=480&Estado=1&panel=6,,
481,481,Valdetorres De Jarama - Sandro Pertini,,40.47039,-3.64319,,http://www.emtmadrid.es/aplicaciones/Estimaciones.aspx?idStop=481&Estado=1&panel=6,,
482,482,Valdetorres De Jarama - Sandro Pertini,,40.4703,-3.6436,,http://www.emtmadrid.es/aplicaciones/Estimaciones.aspx?idStop=482&Estado=1&panel=6,,
483,483,Valdetorres De Jarama - Ángel Luis Herrán,,40.47122,-3.64508,,http://www.emtmadrid.es/aplicaciones/Estimaciones.aspx?idStop=483&Estado=1&panel=6,,
484,484,Valdetorres De Jarama - Ángel Luis Herrán,,40.47095,-3.64509,,http://www.emtmadrid.es/aplicaciones/Estimaciones.aspx?idStop=484&Estado=1&panel=6,,
485,485,Valdetorres De Jarama - Rogelio Muñoz,,40.47181,-3.6464,,http://www.emtmadrid.es/aplicaciones/Estimaciones.aspx?idStop=485&Estado=1&panel=6,,
486,486,Valdetorres De Jarama - Rogelio Muñoz,,40.47166,-3.64668,,http://www.emtmadrid.es/aplicaciones/Estimaciones.aspx?idStop=486&Estado=1&panel=6,,
487,487,Valdetorres de Jarama - Pza. Santos Humosa,,40.47267,-3.64825,,http://www.emtmadrid.es/aplicaciones/Estimaciones.aspx?idStop=487&Estado=1&panel=6,,
488,488,Hortaleza,,40.47294,-3.64942,,http://www.emtmadrid.es/aplicaciones/Estimaciones.aspx?idStop=488&Estado=1&panel=6,,
489,489,Arequipa - Torresandino,,40.469,-3.64079,,http://www.emtmadrid.es/aplicaciones/Estimaciones.aspx?idStop=489&Estado=1&panel=6,,
490,490,Arequipa - los Emigrantes,,40.46898,-3.63905,,http://www.emtmadrid.es/aplicaciones/Estimaciones.aspx?idStop=490&Estado=1&panel=6,,
491,491,Alonso Martinez,,40.42805,-3.6951,,http://www.emtmadrid.es/aplicaciones/Estimaciones.aspx?idStop=491&Estado=1&panel=6,,
492,492,Almagro,,40.43037,-3.69269,,http://www.emtmadrid.es/aplicaciones/Estimaciones.aspx?idStop=492&Estado=1&panel=6,,
493,493,Almagro,,40.43017,-3.69332,,http://www.emtmadrid.es/aplicaciones/Estimaciones.aspx?idStop=493&Estado=1&panel=6,,
494,494,Almagro - Ruben Dario,,40.43224,-3.69149,,http://www.emtmadrid.es/aplicaciones/Estimaciones.aspx?idStop=494&Estado=1&panel=6,,
495,495,Almagro - Ruben Dario,,40.43249,-3.69178,,http://www.emtmadrid.es/aplicaciones/Estimaciones.aspx?idStop=495&Estado=1&panel=6,,
496,496,Av. Cº Santiago - Estella,,40.49673,-3.67396,,http://www.emtmadrid.es/aplicaciones/Estimaciones.aspx?idStop=496&Estado=1&panel=6,,
497,497,Arturo Soria - Julio Danvila,,40.47118,-3.66696,,http://www.emtmadrid.es/aplicaciones/Estimaciones.aspx?idStop=497&Estado=1&panel=6,,
498,498,Arturo Soria - Julio Danvila,,40.47101,-3.66741,,http://www.emtmadrid.es/aplicaciones/Estimaciones.aspx?idStop=498&Estado=1&panel=6,,
499,499,Ingenieros Navales,,40.47325,-3.66753,,http://www.emtmadrid.es/aplicaciones/Estimaciones.aspx?idStop=499&Estado=1&panel=6,,
500,500,Ingenieros Navales,,40.47319,-3.66799,,http://www.emtmadrid.es/aplicaciones/Estimaciones.aspx?idStop=500&Estado=1&panel=6,,
501,501,San Luis - Arturo Soria,,40.47546,-3.66772,,http://www.emtmadrid.es/aplicaciones/Estimaciones.aspx?idStop=501&Estado=1&panel=6,,
502,502,San Luis - Arturo Soria,,40.4758,-3.66792,,http://www.emtmadrid.es/aplicaciones/Estimaciones.aspx?idStop=502&Estado=1&panel=6,,
503,503,San Luis - Mesena,,40.47475,-3.66583,,http://www.emtmadrid.es/aplicaciones/Estimaciones.aspx?idStop=503&Estado=1&panel=6,,
504,504,San Luis - Mesena,,40.47498,-3.6659,,http://www.emtmadrid.es/aplicaciones/Estimaciones.aspx?idStop=504&Estado=1&panel=6,,
505,505,San Luis - Almanzora,,40.47389,-3.66293,,http://www.emtmadrid.es/aplicaciones/Estimaciones.aspx?idStop=505&Estado=1&panel=6,,
506,506,San Luis - Almanzora,,40.474,-3.66317,,http://www.emtmadrid.es/aplicaciones/Estimaciones.aspx?idStop=506&Estado=1&panel=6,,
507,507,Almanzora - Bacares,,40.47555,-3.66079,,http://www.emtmadrid.es/aplicaciones/Estimaciones.aspx?idStop=507&Estado=1&panel=6,,
508,508,Almanzora,,40.47695,-3.65882,,http://www.emtmadrid.es/aplicaciones/Estimaciones.aspx?idStop=508&Estado=1&panel=6,,
509,509,Alicun,,40.47915,-3.65937,,http://www.emtmadrid.es/aplicaciones/Estimaciones.aspx?idStop=509&Estado=1&panel=6,,
510,510,Velez Rubio,,40.47818,-3.66114,,http://www.emtmadrid.es/aplicaciones/Estimaciones.aspx?idStop=510&Estado=1&panel=6,,
511,511,Manoteras,,40.47635,-3.66239,,http://www.emtmadrid.es/aplicaciones/Estimaciones.aspx?idStop=511&Estado=1&panel=6,,
512,512,Almanzora - Bacares,,40.47547,-3.66127,,http://www.emtmadrid.es/aplicaciones/Estimaciones.aspx?idStop=512&Estado=1&panel=6,,
513,513,Cuartel de la Marina,,40.47507,-3.66846,,http://www.emtmadrid.es/aplicaciones/Estimaciones.aspx?idStop=513&Estado=1&panel=6,,
514,514,Principe de Vergara - Serrano,,40.45414,-3.67746,,http://www.emtmadrid.es/aplicaciones/Estimaciones.aspx?idStop=514&Estado=1&panel=6,,
515,515,Principe de Vergara - Serrano,,40.45386,-3.67718,,http://www.emtmadrid.es/aplicaciones/Estimaciones.aspx?idStop=515&Estado=1&panel=6,,
516,516,Concha Espina,,40.45239,-3.67764,,http://www.emtmadrid.es/aplicaciones/Estimaciones.aspx?idStop=516&Estado=1&panel=6,,
517,517,Concha Espina,,40.45138,-3.67743,,http://www.emtmadrid.es/aplicaciones/Estimaciones.aspx?idStop=517&Estado=1&panel=6,,
518,518,Almagro - Alonso Martinez,,40.42847,-3.69512,,http://www.emtmadrid.es/aplicaciones/Estimaciones.aspx?idStop=518&Estado=1&panel=6,,
520,520,Fernandez. de los Rios - Hilarion Eslava,,40.43547,-3.7169,,http://www.emtmadrid.es/aplicaciones/Estimaciones.aspx?idStop=520&Estado=1&panel=6,,
521,521,Guzman el Bueno - Fernandez de los Rios,,40.43532,-3.71345,,http://www.emtmadrid.es/aplicaciones/Estimaciones.aspx?idStop=521&Estado=1&panel=6,,
522,522,Galileo,,40.43509,-3.70904,,http://www.emtmadrid.es/aplicaciones/Estimaciones.aspx?idStop=522&Estado=1&panel=6,,
523,523,Arapiles,,40.43487,-3.70491,,http://www.emtmadrid.es/aplicaciones/Estimaciones.aspx?idStop=523&Estado=1&panel=6,,
524,524,Eloy Gonzalo,,40.43417,-3.70286,,http://www.emtmadrid.es/aplicaciones/Estimaciones.aspx?idStop=524&Estado=1&panel=6,,
525,525,Iglesia,,40.43464,-3.69974,,http://www.emtmadrid.es/aplicaciones/Estimaciones.aspx?idStop=525&Estado=1&panel=6,,
526,526,Iglesia,,40.43486,-3.69983,,http://www.emtmadrid.es/aplicaciones/Estimaciones.aspx?idStop=526&Estado=1&panel=6,,
527,527,Martinez Campos,,40.43497,-3.69606,,http://www.emtmadrid.es/aplicaciones/Estimaciones.aspx?idStop=527&Estado=1&panel=6,,
528,528,Martinez Campos,,40.43525,-3.69526,,http://www.emtmadrid.es/aplicaciones/Estimaciones.aspx?idStop=528&Estado=1&panel=6,,
529,529,Miguel Angel,,40.4351,-3.69054,,http://www.emtmadrid.es/aplicaciones/Estimaciones.aspx?idStop=529&Estado=1&panel=6,,
530,530,Emiilio Castelar,,40.43534,-3.69002,,http://www.emtmadrid.es/aplicaciones/Estimaciones.aspx?idStop=530&Estado=1&panel=6,,
532,532,Serrano - Maria de Molina,,40.43776,-3.68731,,http://www.emtmadrid.es/aplicaciones/Estimaciones.aspx?idStop=532&Estado=1&panel=6,,
533,533,Maria de Molina - Serrano,,40.43799,-3.68665,,http://www.emtmadrid.es/aplicaciones/Estimaciones.aspx?idStop=533&Estado=1&panel=6,,
534,534,Lopez de Hoyos - Velazquez,,40.43847,-3.68387,,http://www.emtmadrid.es/aplicaciones/Estimaciones.aspx?idStop=534&Estado=1&panel=6,,
535,535,Plaza Del Perú,,40.46062,-3.67684,,http://www.emtmadrid.es/aplicaciones/Estimaciones.aspx?idStop=535&Estado=1&panel=6,,
536,536,Doctor Arce,,40.44603,-3.68329,,http://www.emtmadrid.es/aplicaciones/Estimaciones.aspx?idStop=536&Estado=1&panel=6,,
537,537,General Oraa,,40.4359,-3.68803,,http://www.emtmadrid.es/aplicaciones/Estimaciones.aspx?idStop=537&Estado=1&panel=6,,
538,538,Quevedo,,40.43409,-3.70312,,http://www.emtmadrid.es/aplicaciones/Estimaciones.aspx?idStop=538&Estado=1&panel=6,,
540,540,Arapiles,,40.43392,-3.70594,,http://www.emtmadrid.es/aplicaciones/Estimaciones.aspx?idStop=540&Estado=1&panel=6,,
541,541,Mercado Vallehermoso,,40.43417,-3.70924,,http://www.emtmadrid.es/aplicaciones/Estimaciones.aspx?idStop=541&Estado=1&panel=6,,
542,542,Guzman el Bueno - Fernando el Catolico,,40.43436,-3.71291,,http://www.emtmadrid.es/aplicaciones/Estimaciones.aspx?idStop=542&Estado=1&panel=6,,
543,543,Moncloa,,40.43457,-3.71703,,http://www.emtmadrid.es/aplicaciones/Estimaciones.aspx?idStop=543&Estado=1&panel=6,,
544,544,Plaza Mayor,,40.41388,-3.70689,,http://www.emtmadrid.es/aplicaciones/Estimaciones.aspx?idStop=544&Estado=1&panel=6,,
545,545,La Latina,,40.41155,-3.70837,,http://www.emtmadrid.es/aplicaciones/Estimaciones.aspx?idStop=545&Estado=1&panel=6,,
546,546,La Latina,,40.41182,-3.70794,,http://www.emtmadrid.es/aplicaciones/Estimaciones.aspx?idStop=546&Estado=1&panel=6,,
547,547,Toledo - Humilladero,,40.40885,-3.7105,,http://www.emtmadrid.es/aplicaciones/Estimaciones.aspx?idStop=547&Estado=1&panel=6,,
548,548,Toledo - Humilladero,,40.40958,-3.70973,,http://www.emtmadrid.es/aplicaciones/Estimaciones.aspx?idStop=548&Estado=1&panel=6,,
549,549,Puerta De Toledo,,40.4066,-3.71269,,http://www.emtmadrid.es/aplicaciones/Estimaciones.aspx?idStop=549&Estado=1&panel=6,,
550,550,Imperial - Pontones,,40.40491,-3.71563,,http://www.emtmadrid.es/aplicaciones/Estimaciones.aspx?idStop=550&Estado=1&panel=6,,
551,551,Imperial - Pontones,,40.40472,-3.71549,,http://www.emtmadrid.es/aplicaciones/Estimaciones.aspx?idStop=551&Estado=1&panel=6,,
552,552,Puente San Isidro - Pontones,,40.40423,-3.71989,,http://www.emtmadrid.es/aplicaciones/Estimaciones.aspx?idStop=552&Estado=1&panel=6,,
553,553,Puente San Isidro - Pontones,,40.40399,-3.71988,,http://www.emtmadrid.es/aplicaciones/Estimaciones.aspx?idStop=553&Estado=1&panel=6,,
554,554,Puente San Isidro - Ermita Del Santo,,40.40384,-3.72465,,http://www.emtmadrid.es/aplicaciones/Estimaciones.aspx?idStop=554&Estado=1&panel=6,,
555,555,Via Carpetana - Caramuel,,40.40172,-3.73088,,http://www.emtmadrid.es/aplicaciones/Estimaciones.aspx?idStop=555&Estado=1&panel=6,,
556,556,Via Carpetana - Caramuel,,40.40185,-3.73009,,http://www.emtmadrid.es/aplicaciones/Estimaciones.aspx?idStop=556&Estado=1&panel=6,,
557,557,Polideportivo Gallur,,40.39819,-3.73547,,http://www.emtmadrid.es/aplicaciones/Estimaciones.aspx?idStop=557&Estado=1&panel=6,,
558,558,Polideportivo Gallur,,40.39839,-3.73491,,http://www.emtmadrid.es/aplicaciones/Estimaciones.aspx?idStop=558&Estado=1&panel=6,,
559,559,Via Carpetana - Centro De Salud,,40.39656,-3.73755,,http://www.emtmadrid.es/aplicaciones/Estimaciones.aspx?idStop=559&Estado=1&panel=6,,
560,560,Via Carpetana - Centro De Salud,,40.39617,-3.73757,,http://www.emtmadrid.es/aplicaciones/Estimaciones.aspx?idStop=560&Estado=1&panel=6,,
561,561,Via Carpetana - La Campana,,40.39512,-3.73861,,http://www.emtmadrid.es/aplicaciones/Estimaciones.aspx?idStop=561&Estado=1&panel=6,,
562,562,Carabanchel Alto,,40.3621,-3.75433,,http://www.emtmadrid.es/aplicaciones/Estimaciones.aspx?idStop=562&Estado=1&panel=6,,
563,563,Metro Vía Carpetana,,40.39374,-3.74017,,http://www.emtmadrid.es/aplicaciones/Estimaciones.aspx?idStop=563&Estado=1&panel=6,,
564,564,Vía Carpetana - Laguna,,40.39175,-3.74266,,http://www.emtmadrid.es/aplicaciones/Estimaciones.aspx?idStop=564&Estado=1&panel=6,,
565,565,Vía Carpetana - Laguna,,40.39222,-3.74174,,http://www.emtmadrid.es/aplicaciones/Estimaciones.aspx?idStop=565&Estado=1&panel=6,,
566,566,Vía Carpetana - Tucán,,40.38978,-3.74414,,http://www.emtmadrid.es/aplicaciones/Estimaciones.aspx?idStop=566&Estado=1&panel=6,,
569,569,Bravo Murillo - Maria Zayas,,40.45886,-3.70053,,http://www.emtmadrid.es/aplicaciones/Estimaciones.aspx?idStop=569&Estado=1&panel=6,,
570,570,Ocaña,,40.3852,-3.7537,,http://www.emtmadrid.es/aplicaciones/Estimaciones.aspx?idStop=570&Estado=1&panel=6,,
571,571,Ocaña,,40.38554,-3.75314,,http://www.emtmadrid.es/aplicaciones/Estimaciones.aspx?idStop=571&Estado=1&panel=6,,
572,572,Ocaña - Camarena,,40.38442,-3.75793,,http://www.emtmadrid.es/aplicaciones/Estimaciones.aspx?idStop=572&Estado=1&panel=6,,
573,573,Ocaña - Camarena,,40.38429,-3.75801,,http://www.emtmadrid.es/aplicaciones/Estimaciones.aspx?idStop=573&Estado=1&panel=6,,
574,574,Ocaña - Intercambiador De Aluche,,40.38545,-3.75935,,http://www.emtmadrid.es/aplicaciones/Estimaciones.aspx?idStop=574&Estado=1&panel=6,,
575,575,Intercambiador De Aluche,,40.38632,-3.76102,,http://www.emtmadrid.es/aplicaciones/Estimaciones.aspx?idStop=575&Estado=1&panel=6,,
577,577,Hermanos de Pablo,,40.43903,-3.64808,,http://www.emtmadrid.es/aplicaciones/Estimaciones.aspx?idStop=577&Estado=1&panel=6,,
578,578,Rafael Finat - General Fanjul,,40.38367,-3.76525,,http://www.emtmadrid.es/aplicaciones/Estimaciones.aspx?idStop=578&Estado=1&panel=6,,
579,579,Rafael Finat - General Fanjul,,40.38386,-3.76444,,http://www.emtmadrid.es/aplicaciones/Estimaciones.aspx?idStop=579&Estado=1&panel=6,,
580,580,Rafael Finat - Valle Inclán,,40.38155,-3.7678,,http://www.emtmadrid.es/aplicaciones/Estimaciones.aspx?idStop=580&Estado=1&panel=6,,
581,581,Rafael Finat - Valle Inclán,,40.38154,-3.76751,,http://www.emtmadrid.es/aplicaciones/Estimaciones.aspx?idStop=581&Estado=1&panel=6,,
582,582,Rafael Finat - José De Cadalso,,40.37895,-3.77082,,http://www.emtmadrid.es/aplicaciones/Estimaciones.aspx?idStop=582&Estado=1&panel=6,,
583,583,Rafael Finat - José De Cadalso,,40.37912,-3.77028,,http://www.emtmadrid.es/aplicaciones/Estimaciones.aspx?idStop=583&Estado=1&panel=6,,
584,584,Romero Basart - Oliva De Plasencia,,40.37958,-3.77463,,http://www.emtmadrid.es/aplicaciones/Estimaciones.aspx?idStop=584&Estado=1&panel=6,,
585,585,San Ignacio,,40.37879,-3.7742,,http://www.emtmadrid.es/aplicaciones/Estimaciones.aspx?idStop=585&Estado=1&panel=6,,
586,586,Romero Basart - General Fanjul,,40.38178,-3.77554,,http://www.emtmadrid.es/aplicaciones/Estimaciones.aspx?idStop=586&Estado=1&panel=6,,
587,587,Romero Basart - General Fanjul,,40.38183,-3.77541,,http://www.emtmadrid.es/aplicaciones/Estimaciones.aspx?idStop=587&Estado=1&panel=6,,
588,588,Fátima - Nuestra Señora De La Luz,,40.38453,-3.74767,,http://www.emtmadrid.es/aplicaciones/Estimaciones.aspx?idStop=588&Estado=1&panel=6,,
589,589,Guabairo,,40.38509,-3.74599,,http://www.emtmadrid.es/aplicaciones/Estimaciones.aspx?idStop=589&Estado=1&panel=6,,
590,590,Carabanchel - Hospital Militar,,40.3877,-3.74427,,http://www.emtmadrid.es/aplicaciones/Estimaciones.aspx?idStop=590&Estado=1&panel=6,,
591,591,Vidauba - Damasquillo,,40.38366,-3.76403,,http://www.emtmadrid.es/aplicaciones/Estimaciones.aspx?idStop=591&Estado=1&panel=6,,
592,592,Vía Carpetana - Ermita Del Santo,,40.40539,-3.72511,,http://www.emtmadrid.es/aplicaciones/Estimaciones.aspx?idStop=592&Estado=1&panel=6,,
593,593,Puerta De Toledo,,40.40585,-3.71173,,http://www.emtmadrid.es/aplicaciones/Estimaciones.aspx?idStop=593&Estado=1&panel=6,,
594,594,Puerta De Toledo,,40.40612,-3.71214,,http://www.emtmadrid.es/aplicaciones/Estimaciones.aspx?idStop=594&Estado=1&panel=6,,
596,596,Templo de Debod,,40.42579,-3.7188,,http://www.emtmadrid.es/aplicaciones/Estimaciones.aspx?idStop=596&Estado=1&panel=6,,
598,598,Vidauba Nº 14,,40.38151,-3.76316,,http://www.emtmadrid.es/aplicaciones/Estimaciones.aspx?idStop=598&Estado=1&panel=6,,
599,599,Jardines de Sabatini,,40.42148,-3.71427,,http://www.emtmadrid.es/aplicaciones/Estimaciones.aspx?idStop=599&Estado=1&panel=6,,
600,600,Jardines de Sabatini,,40.42155,-3.71351,,http://www.emtmadrid.es/aplicaciones/Estimaciones.aspx?idStop=600&Estado=1&panel=6,,
601,601,Cuesta de San Vicente,,40.42051,-3.71634,,http://www.emtmadrid.es/aplicaciones/Estimaciones.aspx?idStop=601&Estado=1&panel=6,,
602,602,Cuesta de San Vicente,,40.42029,-3.71538,,http://www.emtmadrid.es/aplicaciones/Estimaciones.aspx?idStop=602&Estado=1&panel=6,,
603,603,Principe Pio,,40.42049,-3.71874,,http://www.emtmadrid.es/aplicaciones/Estimaciones.aspx?idStop=603&Estado=1&panel=6,,
604,604,Principe Pio,,40.42016,-3.71909,,http://www.emtmadrid.es/aplicaciones/Estimaciones.aspx?idStop=604&Estado=1&panel=6,,
605,605,Campo del Moro,,40.41938,-3.72036,,http://www.emtmadrid.es/aplicaciones/Estimaciones.aspx?idStop=605&Estado=1&panel=6,,
606,606,Ermita Virgen del Puerto,,40.41673,-3.72081,,http://www.emtmadrid.es/aplicaciones/Estimaciones.aspx?idStop=606&Estado=1&panel=6,,
607,607,Campo del Moro,,40.41938,-3.72002,,http://www.emtmadrid.es/aplicaciones/Estimaciones.aspx?idStop=607&Estado=1&panel=6,,
608,608,Puente de Segovia,,40.41454,-3.72102,,http://www.emtmadrid.es/aplicaciones/Estimaciones.aspx?idStop=608&Estado=1&panel=6,,
609,609,Puente de Segovia,,40.4145,-3.72071,,http://www.emtmadrid.es/aplicaciones/Estimaciones.aspx?idStop=609&Estado=1&panel=6,,
611,611,Gral. Romero Basart - Casuarina,,40.37845,-3.765,,http://www.emtmadrid.es/aplicaciones/Estimaciones.aspx?idStop=611&Estado=1&panel=6,,
612,612,Pº Ermita del Santo - Av. Manzanares,,40.41015,-3.72354,,http://www.emtmadrid.es/aplicaciones/Estimaciones.aspx?idStop=612&Estado=1&panel=6,,
613,613,Pº Ermita del Santo - Av. Manzanares,,40.41005,-3.72336,,http://www.emtmadrid.es/aplicaciones/Estimaciones.aspx?idStop=613&Estado=1&panel=6,,
614,614,Pº Ermita del Santo - Sepulveda,,40.40824,-3.72407,,http://www.emtmadrid.es/aplicaciones/Estimaciones.aspx?idStop=614&Estado=1&panel=6,,
615,615,Pº Ermita del Santo - Sepulveda,,40.40816,-3.72384,,http://www.emtmadrid.es/aplicaciones/Estimaciones.aspx?idStop=615&Estado=1&panel=6,,
616,616,Pº Ermita del Santo - Via Carpetana,,40.40587,-3.72473,,http://www.emtmadrid.es/aplicaciones/Estimaciones.aspx?idStop=616&Estado=1&panel=6,,
617,617,Pº Ermita del Santo - Via Carpetana,,40.40634,-3.72445,,http://www.emtmadrid.es/aplicaciones/Estimaciones.aspx?idStop=617&Estado=1&panel=6,,
618,618,Gallur - Via Carpetana,,40.3985,-3.73562,,http://www.emtmadrid.es/aplicaciones/Estimaciones.aspx?idStop=618&Estado=1&panel=6,,
619,619,Gallur Frente Nº 211,,40.39811,-3.74015,,http://www.emtmadrid.es/aplicaciones/Estimaciones.aspx?idStop=619&Estado=1&panel=6,,
620,620,Gallur Frente Nº 425,,40.3969,-3.74199,,http://www.emtmadrid.es/aplicaciones/Estimaciones.aspx?idStop=620&Estado=1&panel=6,,
621,621,los Carmenes,,40.3954,-3.74427,,http://www.emtmadrid.es/aplicaciones/Estimaciones.aspx?idStop=621&Estado=1&panel=6,,
622,622,los Carmenes,,40.39523,-3.74409,,http://www.emtmadrid.es/aplicaciones/Estimaciones.aspx?idStop=622&Estado=1&panel=6,,
623,623,Duquesa de Parcent,,40.39556,-3.74776,,http://www.emtmadrid.es/aplicaciones/Estimaciones.aspx?idStop=623&Estado=1&panel=6,,
624,624,Duquesa de Parcent,,40.39538,-3.7476,,http://www.emtmadrid.es/aplicaciones/Estimaciones.aspx?idStop=624&Estado=1&panel=6,,
625,625,Duquesa de Parcent - Cuart de Poblet,,40.39597,-3.7513,,http://www.emtmadrid.es/aplicaciones/Estimaciones.aspx?idStop=625&Estado=1&panel=6,,
626,626,Duquesa de Parcent - Cuart de Poblet,,40.39581,-3.75128,,http://www.emtmadrid.es/aplicaciones/Estimaciones.aspx?idStop=626&Estado=1&panel=6,,
627,627,Ctra. Barrio de la Fortuna - Av. Aviacion,,40.37271,-3.76586,,http://www.emtmadrid.es/aplicaciones/Estimaciones.aspx?idStop=627&Estado=1&panel=6,,
628,628,Av. de la Peseta - Ctra. Barrio la Fortuna,,40.36945,-3.766,,http://www.emtmadrid.es/aplicaciones/Estimaciones.aspx?idStop=628&Estado=1&panel=6,,
629,629,Camarena - Illescas,,40.39231,-3.75578,,http://www.emtmadrid.es/aplicaciones/Estimaciones.aspx?idStop=629&Estado=1&panel=6,,
630,630,Camarena - Illescas,,40.39231,-3.75564,,http://www.emtmadrid.es/aplicaciones/Estimaciones.aspx?idStop=630&Estado=1&panel=6,,
631,631,Illescas - Valmojado,,40.39249,-3.75801,,http://www.emtmadrid.es/aplicaciones/Estimaciones.aspx?idStop=631&Estado=1&panel=6,,
632,632,Illescas - Valmojado,,40.39234,-3.75772,,http://www.emtmadrid.es/aplicaciones/Estimaciones.aspx?idStop=632&Estado=1&panel=6,,
633,633,Illescas - Tembleque,,40.39306,-3.76108,,http://www.emtmadrid.es/aplicaciones/Estimaciones.aspx?idStop=633&Estado=1&panel=6,,
634,634,Illescas - Tembleque,,40.39285,-3.76094,,http://www.emtmadrid.es/aplicaciones/Estimaciones.aspx?idStop=634&Estado=1&panel=6,,
635,635,Illescas - Escalona,,40.39595,-3.7645,,http://www.emtmadrid.es/aplicaciones/Estimaciones.aspx?idStop=635&Estado=1&panel=6,,
636,636,Illescas - Escalona,,40.39579,-3.76452,,http://www.emtmadrid.es/aplicaciones/Estimaciones.aspx?idStop=636&Estado=1&panel=6,,
637,637,Av. de la Peseta - Valle del Boi,,40.36566,-3.76388,,http://www.emtmadrid.es/aplicaciones/Estimaciones.aspx?idStop=637&Estado=1&panel=6,,
638,638,Seseña - Illescas,,40.39708,-3.76553,,http://www.emtmadrid.es/aplicaciones/Estimaciones.aspx?idStop=638&Estado=1&panel=6,,
639,639,Ntra. Sra. Valvanera - Laguna,,40.39402,-3.74237,,http://www.emtmadrid.es/aplicaciones/Estimaciones.aspx?idStop=639&Estado=1&panel=6,,
640,640,La Peseta - Pinar De San José,,40.36339,-3.76249,,http://www.emtmadrid.es/aplicaciones/Estimaciones.aspx?idStop=640&Estado=1&panel=6,,
641,641,Dehesa Principe,,40.37724,-3.79794,,http://www.emtmadrid.es/aplicaciones/Estimaciones.aspx?idStop=641&Estado=1&panel=6,,
642,642,Av. Arqueros - Pº Lanceros,,40.3805,-3.79433,,http://www.emtmadrid.es/aplicaciones/Estimaciones.aspx?idStop=642&Estado=1&panel=6,,
643,643,Av. Arqueros Nº 1,,40.38259,-3.79159,,http://www.emtmadrid.es/aplicaciones/Estimaciones.aspx?idStop=643&Estado=1&panel=6,,
644,644,Av. Aviacion - Medina del Campo,,40.38116,-3.78685,,http://www.emtmadrid.es/aplicaciones/Estimaciones.aspx?idStop=644&Estado=1&panel=6,,
645,645,Av. Aviacion - Medina del Campo,,40.38138,-3.78673,,http://www.emtmadrid.es/aplicaciones/Estimaciones.aspx?idStop=645&Estado=1&panel=6,,
646,646,Av. Aviacion - Monroy,,40.3779,-3.78381,,http://www.emtmadrid.es/aplicaciones/Estimaciones.aspx?idStop=646&Estado=1&panel=6,,
647,647,Av. Aviacion - Monroy,,40.3781,-3.78373,,http://www.emtmadrid.es/aplicaciones/Estimaciones.aspx?idStop=647&Estado=1&panel=6,,
649,649,La Peseta - Avenida Carabanchel Alto,,40.36249,-3.75466,,http://www.emtmadrid.es/aplicaciones/Estimaciones.aspx?idStop=649&Estado=1&panel=6,,
650,650,Av. Aviacion - Sinfonia,,40.37477,-3.77635,,http://www.emtmadrid.es/aplicaciones/Estimaciones.aspx?idStop=650&Estado=1&panel=6,,
651,651,Av. Aviacion - Valle Inclan,,40.37484,-3.77578,,http://www.emtmadrid.es/aplicaciones/Estimaciones.aspx?idStop=651&Estado=1&panel=6,,
652,652,Rafael Finat - Osa de la Vega,,40.37522,-3.77293,,http://www.emtmadrid.es/aplicaciones/Estimaciones.aspx?idStop=652&Estado=1&panel=6,,
653,653,Rafael Finat - Osa de la Vega,,40.37534,-3.77309,,http://www.emtmadrid.es/aplicaciones/Estimaciones.aspx?idStop=653&Estado=1&panel=6,,
654,654,Av. Gral. Fanjul - Jose Cadalso,,40.38291,-3.77148,,http://www.emtmadrid.es/aplicaciones/Estimaciones.aspx?idStop=654&Estado=1&panel=6,,
655,655,Av. Gral. Fanjul - Jose Cadalso,,40.38292,-3.77226,,http://www.emtmadrid.es/aplicaciones/Estimaciones.aspx?idStop=655&Estado=1&panel=6,,
656,656,Av. Gral. Fanjul - Est. Renfe Fanjul,,40.38365,-3.76808,,http://www.emtmadrid.es/aplicaciones/Estimaciones.aspx?idStop=656&Estado=1&panel=6,,
657,657,Av. Gral. Fanjul - Est. Renfe Fanjul,,40.38383,-3.76813,,http://www.emtmadrid.es/aplicaciones/Estimaciones.aspx?idStop=657&Estado=1&panel=6,,
658,658,Av. Poblados - Intercambiador Aluche,,40.38477,-3.76087,,http://www.emtmadrid.es/aplicaciones/Estimaciones.aspx?idStop=658&Estado=1&panel=6,,
659,659,Av. Poblados - Intercambiador Aluche,,40.38536,-3.76117,,http://www.emtmadrid.es/aplicaciones/Estimaciones.aspx?idStop=659&Estado=1&panel=6,,
660,660,Av. Poblados - Comisaria,,40.38179,-3.7578,,http://www.emtmadrid.es/aplicaciones/Estimaciones.aspx?idStop=660&Estado=1&panel=6,,
661,661,Av. Poblados - Comisaria,,40.38268,-3.75806,,http://www.emtmadrid.es/aplicaciones/Estimaciones.aspx?idStop=661&Estado=1&panel=6,,
662,662,Av. Poblados - Parque Eugenia Montijo,,40.37837,-3.75591,,http://www.emtmadrid.es/aplicaciones/Estimaciones.aspx?idStop=662&Estado=1&panel=6,,
663,663,Av. Poblados - Parque Eugenia Montijo,,40.37846,-3.75565,,http://www.emtmadrid.es/aplicaciones/Estimaciones.aspx?idStop=663&Estado=1&panel=6,,
664,664,Ronda Don Bosco - Paraguaya,,40.37525,-3.75305,,http://www.emtmadrid.es/aplicaciones/Estimaciones.aspx?idStop=664&Estado=1&panel=6,,
665,665,Cº de las Cruces - Mascaraque,,40.37448,-3.75571,,http://www.emtmadrid.es/aplicaciones/Estimaciones.aspx?idStop=665&Estado=1&panel=6,,
666,666,Carabanchel Alto,,40.37275,-3.75743,,http://www.emtmadrid.es/aplicaciones/Estimaciones.aspx?idStop=666&Estado=1&panel=6,,
667,667,Av. Poblados - Parterre,,40.37671,-3.75071,,http://www.emtmadrid.es/aplicaciones/Estimaciones.aspx?idStop=667&Estado=1&panel=6,,
668,668,Pº de los Husares Nº 24,,40.38031,-3.7903,,http://www.emtmadrid.es/aplicaciones/Estimaciones.aspx?idStop=668&Estado=1&panel=6,,
669,669,Pº Alabarderos,,40.37829,-3.79458,,http://www.emtmadrid.es/aplicaciones/Estimaciones.aspx?idStop=669&Estado=1&panel=6,,
670,670,Colon,,40.42534,-3.68841,,http://www.emtmadrid.es/aplicaciones/Estimaciones.aspx?idStop=670&Estado=1&panel=6,,
671,671,Colon,,40.42569,-3.68869,,http://www.emtmadrid.es/aplicaciones/Estimaciones.aspx?idStop=671&Estado=1&panel=6,,
672,672,Goya - Velazquez,,40.4251,-3.68446,,http://www.emtmadrid.es/aplicaciones/Estimaciones.aspx?idStop=672&Estado=1&panel=6,,
673,673,Goya - Velazquez,,40.42542,-3.685,,http://www.emtmadrid.es/aplicaciones/Estimaciones.aspx?idStop=673&Estado=1&panel=6,,
674,674,Goya - Principe Vergara,,40.42495,-3.68131,,http://www.emtmadrid.es/aplicaciones/Estimaciones.aspx?idStop=674&Estado=1&panel=6,,
675,675,Goya - Principe Vergara,,40.42521,-3.68046,,http://www.emtmadrid.es/aplicaciones/Estimaciones.aspx?idStop=675&Estado=1&panel=6,,
676,676,Felipe II,,40.42475,-3.67695,,http://www.emtmadrid.es/aplicaciones/Estimaciones.aspx?idStop=676&Estado=1&panel=6,,
678,678,Alcala - Goya,,40.42519,-3.67454,,http://www.emtmadrid.es/aplicaciones/Estimaciones.aspx?idStop=678&Estado=1&panel=6,,
679,679,Alcala - Goya,,40.42532,-3.67499,,http://www.emtmadrid.es/aplicaciones/Estimaciones.aspx?idStop=679&Estado=1&panel=6,,
680,680,Alcala - Hermosilla,,40.42602,-3.67273,,http://www.emtmadrid.es/aplicaciones/Estimaciones.aspx?idStop=680&Estado=1&panel=6,,
681,681,Alcala - Hermosilla,,40.42617,-3.67313,,http://www.emtmadrid.es/aplicaciones/Estimaciones.aspx?idStop=681&Estado=1&panel=6,,
682,682,Alcala - Manuel Becerra,,40.42745,-3.6698,,http://www.emtmadrid.es/aplicaciones/Estimaciones.aspx?idStop=682&Estado=1&panel=6,,
683,683,Alcala - Manuel Becerra,,40.42773,-3.66994,,http://www.emtmadrid.es/aplicaciones/Estimaciones.aspx?idStop=683&Estado=1&panel=6,,
684,684,Manuel Becerra,,40.42877,-3.66782,,http://www.emtmadrid.es/aplicaciones/Estimaciones.aspx?idStop=684&Estado=1&panel=6,,
685,685,Alcala - Parque Bomberos,,40.42905,-3.66645,,http://www.emtmadrid.es/aplicaciones/Estimaciones.aspx?idStop=685&Estado=1&panel=6,,
686,686,Alcala - Bocangel,,40.42992,-3.66473,,http://www.emtmadrid.es/aplicaciones/Estimaciones.aspx?idStop=686&Estado=1&panel=6,,
687,687,La Peseta - Pinar De San José,,40.36396,-3.76231,,http://www.emtmadrid.es/aplicaciones/Estimaciones.aspx?idStop=687&Estado=1&panel=6,,
688,688,Avenida de los Toreros,,40.43389,-3.66366,,http://www.emtmadrid.es/aplicaciones/Estimaciones.aspx?idStop=688&Estado=1&panel=6,,
689,689,Biarritz,,40.43551,-3.66398,,http://www.emtmadrid.es/aplicaciones/Estimaciones.aspx?idStop=689&Estado=1&panel=6,,
690,690,Bruselas,,40.4381,-3.66343,,http://www.emtmadrid.es/aplicaciones/Estimaciones.aspx?idStop=690&Estado=1&panel=6,,
691,691,Bruselas,,40.43881,-3.66317,,http://www.emtmadrid.es/aplicaciones/Estimaciones.aspx?idStop=691&Estado=1&panel=6,,
692,692,Plaza de Venecia,,40.44049,-3.66285,,http://www.emtmadrid.es/aplicaciones/Estimaciones.aspx?idStop=692&Estado=1&panel=6,,
693,693,Plaza de Venecia,,40.44059,-3.66309,,http://www.emtmadrid.es/aplicaciones/Estimaciones.aspx?idStop=693&Estado=1&panel=6,,
694,694,Tanatorio - M30,,40.44091,-3.65625,,http://www.emtmadrid.es/aplicaciones/Estimaciones.aspx?idStop=694&Estado=1&panel=6,,
695,695,Tanatorio - M30,,40.44106,-3.65632,,http://www.emtmadrid.es/aplicaciones/Estimaciones.aspx?idStop=695&Estado=1&panel=6,,
696,696,Avenida de Badajoz,,40.44202,-3.65432,,http://www.emtmadrid.es/aplicaciones/Estimaciones.aspx?idStop=696&Estado=1&panel=6,,
697,697,Barrio Blanco,,40.44352,-3.65411,,http://www.emtmadrid.es/aplicaciones/Estimaciones.aspx?idStop=697&Estado=1&panel=6,,
698,698,Torrelaguna - Avenida de Badajoz,,40.44293,-3.65384,,http://www.emtmadrid.es/aplicaciones/Estimaciones.aspx?idStop=698&Estado=1&panel=6,,
699,699,Torrelaguna - Condesa Venadito,,40.44468,-3.65484,,http://www.emtmadrid.es/aplicaciones/Estimaciones.aspx?idStop=699&Estado=1&panel=6,,
700,700,Torrelaguna - Condesa Venadito,,40.4444,-3.6549,,http://www.emtmadrid.es/aplicaciones/Estimaciones.aspx?idStop=700&Estado=1&panel=6,,
701,701,Torrelaguna - Ramirez de Arellano,,40.44823,-3.6569,,http://www.emtmadrid.es/aplicaciones/Estimaciones.aspx?idStop=701&Estado=1&panel=6,,
702,702,Torrelaguna - Emilio Vargas,,40.4475,-3.65671,,http://www.emtmadrid.es/aplicaciones/Estimaciones.aspx?idStop=702&Estado=1&panel=6,,
703,703,San Juan Bautista,,40.44954,-3.65774,,http://www.emtmadrid.es/aplicaciones/Estimaciones.aspx?idStop=703&Estado=1&panel=6,,
704,704,San Juan Bautista,,40.44972,-3.65799,,http://www.emtmadrid.es/aplicaciones/Estimaciones.aspx?idStop=704&Estado=1&panel=6,,
705,705,Sorzano,,40.45118,-3.6595,,http://www.emtmadrid.es/aplicaciones/Estimaciones.aspx?idStop=705&Estado=1&panel=6,,
706,706,Sorzano,,40.45112,-3.65977,,http://www.emtmadrid.es/aplicaciones/Estimaciones.aspx?idStop=706&Estado=1&panel=6,,
707,707,Metro Avenida de la Paz,,40.45369,-3.66043,,http://www.emtmadrid.es/aplicaciones/Estimaciones.aspx?idStop=707&Estado=1&panel=6,,
708,708,Metro Avenida de la Paz,,40.45322,-3.66072,,http://www.emtmadrid.es/aplicaciones/Estimaciones.aspx?idStop=708&Estado=1&panel=6,,
709,709,Bristol,,40.44102,-3.66152,,http://www.emtmadrid.es/aplicaciones/Estimaciones.aspx?idStop=709&Estado=1&panel=6,,
710,710,Luis Calvo,,40.43553,-3.66495,,http://www.emtmadrid.es/aplicaciones/Estimaciones.aspx?idStop=710&Estado=1&panel=6,,
711,711,Avenida de los Toreros,,40.43351,-3.66466,,http://www.emtmadrid.es/aplicaciones/Estimaciones.aspx?idStop=711&Estado=1&panel=6,,
712,712,Ventas,,40.43077,-3.66428,,http://www.emtmadrid.es/aplicaciones/Estimaciones.aspx?idStop=712&Estado=1&panel=6,,
715,715,Cartagena - Lopez de Hoyos,,40.44256,-3.67555,,http://www.emtmadrid.es/aplicaciones/Estimaciones.aspx?idStop=715&Estado=1&panel=6,,
716,716,Cartagena - Lopez de Hoyos,,40.44253,-3.67582,,http://www.emtmadrid.es/aplicaciones/Estimaciones.aspx?idStop=716&Estado=1&panel=6,,
717,717,Cartagena,,40.43965,-3.67363,,http://www.emtmadrid.es/aplicaciones/Estimaciones.aspx?idStop=717&Estado=1&panel=6,,
718,718,Cartagena,,40.43962,-3.67378,,http://www.emtmadrid.es/aplicaciones/Estimaciones.aspx?idStop=718&Estado=1&panel=6,,
719,719,Av. de la Peseta - Valle del Boi,,40.36587,-3.76343,,http://www.emtmadrid.es/aplicaciones/Estimaciones.aspx?idStop=719&Estado=1&panel=6,,
720,720,Av. de la Peseta - Ctra. Barrio la Fortuna,,40.36967,-3.76579,,http://www.emtmadrid.es/aplicaciones/Estimaciones.aspx?idStop=720&Estado=1&panel=6,,
721,721,Cartagena - Bejar,,40.43728,-3.67096,,http://www.emtmadrid.es/aplicaciones/Estimaciones.aspx?idStop=721&Estado=1&panel=6,,
722,722,Cartagena - Bejar,,40.43719,-3.67111,,http://www.emtmadrid.es/aplicaciones/Estimaciones.aspx?idStop=722&Estado=1&panel=6,,
725,725,Centro Cultural Buenavista,,40.43203,-3.67099,,http://www.emtmadrid.es/aplicaciones/Estimaciones.aspx?idStop=725&Estado=1&panel=6,,
726,726,Cartagena - Francisco Silvela,,40.43109,-3.67046,,http://www.emtmadrid.es/aplicaciones/Estimaciones.aspx?idStop=726&Estado=1&panel=6,,
727,727,Parque Eva Duarte,,40.42966,-3.67088,,http://www.emtmadrid.es/aplicaciones/Estimaciones.aspx?idStop=727&Estado=1&panel=6,,
728,728,Parque Eva Duarte,,40.42982,-3.67116,,http://www.emtmadrid.es/aplicaciones/Estimaciones.aspx?idStop=728&Estado=1&panel=6,,
729,729,Lista,,40.42988,-3.67596,,http://www.emtmadrid.es/aplicaciones/Estimaciones.aspx?idStop=729&Estado=1&panel=6,,
730,730,Lista,,40.43011,-3.67594,,http://www.emtmadrid.es/aplicaciones/Estimaciones.aspx?idStop=730&Estado=1&panel=6,,
731,731,Marques de Salamanca,,40.43008,-3.68061,,http://www.emtmadrid.es/aplicaciones/Estimaciones.aspx?idStop=731&Estado=1&panel=6,,
732,732,Marques de Salamanca,,40.43034,-3.68066,,http://www.emtmadrid.es/aplicaciones/Estimaciones.aspx?idStop=732&Estado=1&panel=6,,
733,733,Ortega y Gasset - Claudio Coello,,40.4306,-3.68609,,http://www.emtmadrid.es/aplicaciones/Estimaciones.aspx?idStop=733&Estado=1&panel=6,,
734,734,Princesa - Rey Francisco,,40.4283,-3.71442,,http://www.emtmadrid.es/aplicaciones/Estimaciones.aspx?idStop=734&Estado=1&panel=6,,
735,735,Arguelles,,40.43011,-3.71607,,http://www.emtmadrid.es/aplicaciones/Estimaciones.aspx?idStop=735&Estado=1&panel=6,,
736,736,Arguelles,,40.43022,-3.71577,,http://www.emtmadrid.es/aplicaciones/Estimaciones.aspx?idStop=736&Estado=1&panel=6,,
737,737,Altamirano,,40.43216,-3.71756,,http://www.emtmadrid.es/aplicaciones/Estimaciones.aspx?idStop=737&Estado=1&panel=6,,
738,738,Altamirano,,40.43222,-3.71718,,http://www.emtmadrid.es/aplicaciones/Estimaciones.aspx?idStop=738&Estado=1&panel=6,,
740,740,Moncloa,,40.43455,-3.71932,,http://www.emtmadrid.es/aplicaciones/Estimaciones.aspx?idStop=740&Estado=1&panel=6,,
743,743,Cristo Rey,,40.43864,-3.71763,,http://www.emtmadrid.es/aplicaciones/Estimaciones.aspx?idStop=743&Estado=1&panel=6,,
745,745,Auditorio Nacional,,40.44494,-3.67636,,http://www.emtmadrid.es/aplicaciones/Estimaciones.aspx?idStop=745&Estado=1&panel=6,,
751,751,Escuelas Aguirre,,40.42242,-3.68083,,http://www.emtmadrid.es/aplicaciones/Estimaciones.aspx?idStop=751&Estado=1&panel=6,,
752,752,Escuelas Aguirre,,40.42244,-3.6814,,http://www.emtmadrid.es/aplicaciones/Estimaciones.aspx?idStop=752&Estado=1&panel=6,,
753,753,Felipe II,,40.42386,-3.67759,,http://www.emtmadrid.es/aplicaciones/Estimaciones.aspx?idStop=753&Estado=1&panel=6,,
754,754,Felipe II,,40.42455,-3.6767,,http://www.emtmadrid.es/aplicaciones/Estimaciones.aspx?idStop=754&Estado=1&panel=6,,
755,755,Felipe II,,40.42448,-3.67613,,http://www.emtmadrid.es/aplicaciones/Estimaciones.aspx?idStop=755&Estado=1&panel=6,,
756,756,Ventas,,40.43058,-3.66338,,http://www.emtmadrid.es/aplicaciones/Estimaciones.aspx?idStop=756&Estado=1&panel=6,,
757,757,Ventas,,40.43107,-3.66318,,http://www.emtmadrid.es/aplicaciones/Estimaciones.aspx?idStop=757&Estado=1&panel=6,,
758,758,el Carmen,,40.43185,-3.65705,,http://www.emtmadrid.es/aplicaciones/Estimaciones.aspx?idStop=758&Estado=1&panel=6,,
759,759,el Carmen,,40.43202,-3.65719,,http://www.emtmadrid.es/aplicaciones/Estimaciones.aspx?idStop=759&Estado=1&panel=6,,
760,760,Alcalde Lopez Casero,,40.4326,-3.65541,,http://www.emtmadrid.es/aplicaciones/Estimaciones.aspx?idStop=760&Estado=1&panel=6,,
761,761,Alcalde Lopez Casero,,40.43256,-3.65556,,http://www.emtmadrid.es/aplicaciones/Estimaciones.aspx?idStop=761&Estado=1&panel=6,,
762,762,Jose Banus,,40.43399,-3.65573,,http://www.emtmadrid.es/aplicaciones/Estimaciones.aspx?idStop=762&Estado=1&panel=6,,
763,763,Jose Banus,,40.43401,-3.6559,,http://www.emtmadrid.es/aplicaciones/Estimaciones.aspx?idStop=763&Estado=1&panel=6,,
764,764,Parque Calero,,40.43488,-3.65296,,http://www.emtmadrid.es/aplicaciones/Estimaciones.aspx?idStop=764&Estado=1&panel=6,,
765,765,Parque Calero,,40.43518,-3.65274,,http://www.emtmadrid.es/aplicaciones/Estimaciones.aspx?idStop=765&Estado=1&panel=6,,
766,766,Jose del Hierro - Polideportivo,,40.43645,-3.64983,,http://www.emtmadrid.es/aplicaciones/Estimaciones.aspx?idStop=766&Estado=1&panel=6,,
767,767,Jose del Hierro - Polideportivo,,40.43649,-3.65004,,http://www.emtmadrid.es/aplicaciones/Estimaciones.aspx?idStop=767&Estado=1&panel=6,,
768,768,Hermanos de Pablo,,40.43787,-3.64681,,http://www.emtmadrid.es/aplicaciones/Estimaciones.aspx?idStop=768&Estado=1&panel=6,,
769,769,Jose del Hierro - Mandarina,,40.44013,-3.64418,,http://www.emtmadrid.es/aplicaciones/Estimaciones.aspx?idStop=769&Estado=1&panel=6,,
770,770,Jose del Hierro - Mandarina,,40.44021,-3.6443,,http://www.emtmadrid.es/aplicaciones/Estimaciones.aspx?idStop=770&Estado=1&panel=6,,
771,771,Arturo Soria - Jose del Hierro,,40.44117,-3.6417,,http://www.emtmadrid.es/aplicaciones/Estimaciones.aspx?idStop=771&Estado=1&panel=6,,
773,773,Mques. de Hoyos,,40.4432,-3.63931,,http://www.emtmadrid.es/aplicaciones/Estimaciones.aspx?idStop=773&Estado=1&panel=6,,
774,774,Gral. Romero Basart - Casuarina,,40.37828,-3.76493,,http://www.emtmadrid.es/aplicaciones/Estimaciones.aspx?idStop=774&Estado=1&panel=6,,
776,776,Virgen del Portillo - Polideportivo,,40.43791,-3.65039,,http://www.emtmadrid.es/aplicaciones/Estimaciones.aspx?idStop=776&Estado=1&panel=6,,
777,777,Parque Calero,,40.43602,-3.65427,,http://www.emtmadrid.es/aplicaciones/Estimaciones.aspx?idStop=777&Estado=1&panel=6,,
778,778,Metro Principe de Vergara,,40.42323,-3.67965,,http://www.emtmadrid.es/aplicaciones/Estimaciones.aspx?idStop=778&Estado=1&panel=6,,
779,779,Marques de Zafra,,40.42523,-3.66179,,http://www.emtmadrid.es/aplicaciones/Estimaciones.aspx?idStop=779&Estado=1&panel=6,,
780,780,Rufino Blanco,,40.42586,-3.66419,,http://www.emtmadrid.es/aplicaciones/Estimaciones.aspx?idStop=780&Estado=1&panel=6,,
781,781,Marques de Mondejar,,40.42672,-3.6671,,http://www.emtmadrid.es/aplicaciones/Estimaciones.aspx?idStop=781&Estado=1&panel=6,,
782,782,Parque Eva Duarte,,40.42948,-3.66965,,http://www.emtmadrid.es/aplicaciones/Estimaciones.aspx?idStop=782&Estado=1&panel=6,,
784,784,Francisco Silvela - Juan Bravo,,40.43262,-3.6723,,http://www.emtmadrid.es/aplicaciones/Estimaciones.aspx?idStop=784&Estado=1&panel=6,,
785,785,Diego de Leon,,40.43496,-3.67445,,http://www.emtmadrid.es/aplicaciones/Estimaciones.aspx?idStop=785&Estado=1&panel=6,,
786,786,Diego de Leon,,40.43392,-3.67397,,http://www.emtmadrid.es/aplicaciones/Estimaciones.aspx?idStop=786&Estado=1&panel=6,,
787,787,Fco. Silvela - Diego de Leon,,40.43512,-3.67523,,http://www.emtmadrid.es/aplicaciones/Estimaciones.aspx?idStop=787&Estado=1&panel=6,,
788,788,Intercambiador de Avenida de America,,40.43667,-3.6763,,http://www.emtmadrid.es/aplicaciones/Estimaciones.aspx?idStop=788&Estado=1&panel=6,,
789,789,Intercambiador de Avenida de America,,40.43696,-3.67724,,http://www.emtmadrid.es/aplicaciones/Estimaciones.aspx?idStop=789&Estado=1&panel=6,,
790,790,Maria de Molina - Principe de Vergara,,40.4376,-3.67859,,http://www.emtmadrid.es/aplicaciones/Estimaciones.aspx?idStop=790&Estado=1&panel=6,,
791,791,Maria de Molina - Principe de Vergara,,40.4374,-3.67989,,http://www.emtmadrid.es/aplicaciones/Estimaciones.aspx?idStop=791&Estado=1&panel=6,,
792,792,Velazquez - Maria de Molina,,40.43784,-3.68242,,http://www.emtmadrid.es/aplicaciones/Estimaciones.aspx?idStop=792&Estado=1&panel=6,,
793,793,Velazquez - Maria de Molina,,40.43754,-3.68247,,http://www.emtmadrid.es/aplicaciones/Estimaciones.aspx?idStop=793&Estado=1&panel=6,,
794,794,Gregorio Marañon,,40.43848,-3.69025,,http://www.emtmadrid.es/aplicaciones/Estimaciones.aspx?idStop=794&Estado=1&panel=6,,
795,795,Museo Ciencias Naturales,,40.44048,-3.69112,,http://www.emtmadrid.es/aplicaciones/Estimaciones.aspx?idStop=795&Estado=1&panel=6,,
796,796,San Juan de la Cruz,,40.44186,-3.69558,,http://www.emtmadrid.es/aplicaciones/Estimaciones.aspx?idStop=796&Estado=1&panel=6,,
797,797,Rios Rosas - Alonso Cano,,40.44198,-3.69776,,http://www.emtmadrid.es/aplicaciones/Estimaciones.aspx?idStop=797&Estado=1&panel=6,,
798,798,Metro Rios Rosas,,40.44218,-3.70137,,http://www.emtmadrid.es/aplicaciones/Estimaciones.aspx?idStop=798&Estado=1&panel=6,,
799,799,Juan Zorrilla,,40.44218,-3.70463,,http://www.emtmadrid.es/aplicaciones/Estimaciones.aspx?idStop=799&Estado=1&panel=6,,
800,800,Estadio Vallehermoso,,40.44077,-3.70876,,http://www.emtmadrid.es/aplicaciones/Estimaciones.aspx?idStop=800&Estado=1&panel=6,,
801,801,Metro Islas Filipinas,,40.43932,-3.71258,,http://www.emtmadrid.es/aplicaciones/Estimaciones.aspx?idStop=801&Estado=1&panel=6,,
802,802,Vidauba - Rodrigo de Arana,,40.38134,-3.76281,,http://www.emtmadrid.es/aplicaciones/Estimaciones.aspx?idStop=802&Estado=1&panel=6,,
803,803,Cristo Rey - San Francisco de Sales,,40.43972,-3.71673,,http://www.emtmadrid.es/aplicaciones/Estimaciones.aspx?idStop=803&Estado=1&panel=6,,
805,805,Metro Islas Filipinas,,40.43889,-3.71252,,http://www.emtmadrid.es/aplicaciones/Estimaciones.aspx?idStop=805&Estado=1&panel=6,,
806,806,Cea Bermudez,,40.43873,-3.7088,,http://www.emtmadrid.es/aplicaciones/Estimaciones.aspx?idStop=806&Estado=1&panel=6,,
807,807,Canal,,40.43856,-3.70371,,http://www.emtmadrid.es/aplicaciones/Estimaciones.aspx?idStop=807&Estado=1&panel=6,,
808,808,Jose Abascal - Santa Engracia,,40.43842,-3.70066,,http://www.emtmadrid.es/aplicaciones/Estimaciones.aspx?idStop=808&Estado=1&panel=6,,
809,809,Jose Abascal - Modesto Lafuente,,40.43822,-3.69588,,http://www.emtmadrid.es/aplicaciones/Estimaciones.aspx?idStop=809&Estado=1&panel=6,,
810,810,Gregorio Marañon,,40.43802,-3.69188,,http://www.emtmadrid.es/aplicaciones/Estimaciones.aspx?idStop=810&Estado=1&panel=6,,
811,811,Francisco Silvela - Juan Bravo,,40.43122,-3.67165,,http://www.emtmadrid.es/aplicaciones/Estimaciones.aspx?idStop=811&Estado=1&panel=6,,
812,812,America Española,,40.42926,-3.66261,,http://www.emtmadrid.es/aplicaciones/Estimaciones.aspx?idStop=812&Estado=1&panel=6,,
813,813,Sancho Davila,,40.42748,-3.66208,,http://www.emtmadrid.es/aplicaciones/Estimaciones.aspx?idStop=813&Estado=1&panel=6,,
814,814,Menendez Pelayo - Retiro,,40.41682,-3.67841,,http://www.emtmadrid.es/aplicaciones/Estimaciones.aspx?idStop=814&Estado=1&panel=6,,
815,815,Av. Menendez Pelayo - A. Sainz Baranda,,40.41678,-3.67809,,http://www.emtmadrid.es/aplicaciones/Estimaciones.aspx?idStop=815&Estado=1&panel=6,,
816,816,Hospital Niño Jesus,,40.41438,-3.67755,,http://www.emtmadrid.es/aplicaciones/Estimaciones.aspx?idStop=816&Estado=1&panel=6,,
817,817,Hospital Niño Jesus,,40.4149,-3.67733,,http://www.emtmadrid.es/aplicaciones/Estimaciones.aspx?idStop=817&Estado=1&panel=6,,
818,818,Pza. Niño Jesus,,40.41111,-3.67565,,http://www.emtmadrid.es/aplicaciones/Estimaciones.aspx?idStop=818&Estado=1&panel=6,,
819,819,Pza. Niño Jesus,,40.41114,-3.6752,,http://www.emtmadrid.es/aplicaciones/Estimaciones.aspx?idStop=819&Estado=1&panel=6,,
820,820,Av. Nazaret - Jesus Aprendiz,,40.41132,-3.6713,,http://www.emtmadrid.es/aplicaciones/Estimaciones.aspx?idStop=820&Estado=1&panel=6,,
821,821,Av. Nazaret - Jesus Aprendiz,,40.41156,-3.67071,,http://www.emtmadrid.es/aplicaciones/Estimaciones.aspx?idStop=821&Estado=1&panel=6,,
822,822,Astros,,40.41121,-3.66892,,http://www.emtmadrid.es/aplicaciones/Estimaciones.aspx?idStop=822&Estado=1&panel=6,,
823,823,los Astros - Cruz del Sur,,40.41153,-3.66854,,http://www.emtmadrid.es/aplicaciones/Estimaciones.aspx?idStop=823&Estado=1&panel=6,,
824,824,Estrella,,40.41104,-3.66549,,http://www.emtmadrid.es/aplicaciones/Estimaciones.aspx?idStop=824&Estado=1&panel=6,,
825,825,Estrella,,40.41129,-3.66544,,http://www.emtmadrid.es/aplicaciones/Estimaciones.aspx?idStop=825&Estado=1&panel=6,,
826,826,Vinateros - Centro Comercial,,40.41065,-3.66015,,http://www.emtmadrid.es/aplicaciones/Estimaciones.aspx?idStop=826&Estado=1&panel=6,,
827,827,Vinateros - Calle 30,,40.41089,-3.65892,,http://www.emtmadrid.es/aplicaciones/Estimaciones.aspx?idStop=827&Estado=1&panel=6,,
828,828,Corr. Diego Valderrabano - Lituania,,40.40945,-3.66026,,http://www.emtmadrid.es/aplicaciones/Estimaciones.aspx?idStop=828&Estado=1&panel=6,,
829,829,Corr. Diego Valderrabano - Lituania,,40.40929,-3.66004,,http://www.emtmadrid.es/aplicaciones/Estimaciones.aspx?idStop=829&Estado=1&panel=6,,
